{
  "content" : [
    {
      "Stad/gemeente" : "Tongeren",
      "Programma" : "Urbain full ",
      "Handelszaak" : "Merken Fashion",
      "Straat + huisnummer" : "Maastrichterstraat 77",
      "postcode" : 3700,
      "stad" : "Tongeren",
      "type" : "",
      "Address" : "Maastrichterstraat 77, 3700 Tongeren",
      "Lat" : 50.7823298,
      "Long" : 5.466967299999999
    },
    {
      "Stad/gemeente" : "Tongeren",
      "Programma" : "Urbain full ",
      "Handelszaak" : "Max & Maxime kinderkleding",
      "Straat + huisnummer" : "Maastrichterstraat 31",
      "postcode" : 3700,
      "stad" : "Tongeren",
      "type" : "",
      "Address" : "Maastrichterstraat 31, 3700 Tongeren",
      "Lat" : 50.7817122,
      "Long" : 5.4653449
    },
    {
      "Stad/gemeente" : "Tongeren",
      "Programma" : "Urbain full ",
      "Handelszaak" : "Oraphon Hoorcentrum",
      "Straat + huisnummer" : "Kastanjewal 58",
      "postcode" : 3700,
      "stad" : "Tongeren",
      "type" : "",
      "Address" : "Kastanjewal 58, 3700 Tongeren",
      "Lat" : 50.77656500000001,
      "Long" : 5.4649014
    },
    {
      "Stad/gemeente" : "Tongeren",
      "Programma" : "Urbain full ",
      "Handelszaak" : "Gerry Weber",
      "Straat + huisnummer" : "Maastrichterstraat 32 B ",
      "postcode" : 3700,
      "stad" : "Tongeren",
      "type" : "",
      "Address" : "Maastrichterstraat 32 B , 3700 Tongeren",
      "Lat" : 50.7818073,
      "Long" : 5.4653033
    },
    {
      "Stad/gemeente" : "Tongeren",
      "Programma" : "Urbain full ",
      "Handelszaak" : "Brax",
      "Straat + huisnummer" : "Maastrichterstraat 60",
      "postcode" : 3700,
      "stad" : "Tongeren",
      "type" : "",
      "Address" : "Maastrichterstraat 60, 3700 Tongeren",
      "Lat" : 50.7822865,
      "Long" : 5.4665072
    },
    {
      "Stad/gemeente" : "Tongeren",
      "Programma" : "Urbain full ",
      "Handelszaak" : "Barea",
      "Straat + huisnummer" : "Maastrichterstraat 47",
      "postcode" : 3700,
      "stad" : "Tongeren",
      "type" : "",
      "Address" : "Maastrichterstraat 47, 3700 Tongeren",
      "Lat" : 50.7820081,
      "Long" : 5.4659134
    },
    {
      "Stad/gemeente" : "Tongeren",
      "Programma" : "Urbain full ",
      "Handelszaak" : "Autogarden",
      "Straat + huisnummer" : "Bilzensteenweg 296",
      "postcode" : 3700,
      "stad" : "Tongeren",
      "type" : "",
      "Address" : "Bilzensteenweg 296, 3700 Tongeren",
      "Lat" : 50.796197,
      "Long" : 5.4650523
    },
    {
      "Stad/gemeente" : "Tongeren",
      "Programma" : "Urbain full ",
      "Handelszaak" : "Bellagio",
      "Straat + huisnummer" : "Grote Markt 10 1",
      "postcode" : 3700,
      "stad" : "Tongeren",
      "type" : "",
      "Address" : "Grote Markt 10 1, 3700 Tongeren",
      "Lat" : 50.7806059,
      "Long" : 5.4634011
    },
    {
      "Stad/gemeente" : "Tongeren",
      "Programma" : "Urbain full ",
      "Handelszaak" : "Ben's Café",
      "Straat + huisnummer" : "Grote Markt 11",
      "postcode" : 3700,
      "stad" : "Tongeren",
      "type" : "",
      "Address" : "Grote Markt 11, 3700 Tongeren",
      "Lat" : 50.78100550000001,
      "Long" : 5.4634344
    },
    {
      "Stad/gemeente" : "Tongeren",
      "Programma" : "Urbain full ",
      "Handelszaak" : "Bikes Claessens",
      "Straat + huisnummer" : "Hasseltsesteenweg 94",
      "postcode" : 3700,
      "stad" : "Tongeren",
      "type" : "",
      "Address" : "Hasseltsesteenweg 94, 3700 Tongeren",
      "Lat" : 50.7837863,
      "Long" : 5.456587799999999
    },
    {
      "Stad/gemeente" : "Tongeren",
      "Programma" : "Urbain full ",
      "Handelszaak" : "Sports & More",
      "Straat + huisnummer" : "Stationslaan 29",
      "postcode" : 3700,
      "stad" : "Tongeren",
      "type" : "",
      "Address" : "Stationslaan 29, 3700 Tongeren",
      "Lat" : 50.7835407,
      "Long" : 5.4721474
    },
    {
      "Stad/gemeente" : "Tongeren",
      "Programma" : "Urbain full ",
      "Handelszaak" : "Allezzi Travel",
      "Straat + huisnummer" : "Stationslaan 30",
      "postcode" : 3700,
      "stad" : "Tongeren",
      "type" : "",
      "Address" : "Stationslaan 30, 3700 Tongeren",
      "Lat" : 50.7836997,
      "Long" : 5.4724603
    },
    {
      "Stad/gemeente" : "Tongeren",
      "Programma" : "Urbain full ",
      "Handelszaak" : "Babybelle",
      "Straat + huisnummer" : "Stationslaan 41",
      "postcode" : 3700,
      "stad" : "Tongeren",
      "type" : "",
      "Address" : "Stationslaan 41, 3700 Tongeren",
      "Lat" : 50.7836844,
      "Long" : 5.4725024
    },
    {
      "Stad/gemeente" : "Tongeren",
      "Programma" : "Urbain full ",
      "Handelszaak" : "Brasserie Bazilik",
      "Straat + huisnummer" : "Kloosterstraat 1 /2",
      "postcode" : 3700,
      "stad" : "Tongeren",
      "type" : "",
      "Address" : "Kloosterstraat 1 /2, 3700 Tongeren",
      "Lat" : 50.7812419,
      "Long" : 5.4648365
    },
    {
      "Stad/gemeente" : "Tongeren",
      "Programma" : "Urbain full ",
      "Handelszaak" : "Jeans Station",
      "Straat + huisnummer" : "Maastrichterstraat 152",
      "postcode" : 3700,
      "stad" : "Tongeren",
      "type" : "",
      "Address" : "Maastrichterstraat 152, 3700 Tongeren",
      "Lat" : 50.78315869999999,
      "Long" : 5.470005899999999
    },
    {
      "Stad/gemeente" : "Tongeren",
      "Programma" : "Urbain full ",
      "Handelszaak" : "Eurosys",
      "Straat + huisnummer" : "Luikersteenweg 151 bus 11",
      "postcode" : 3700,
      "stad" : "Tongeren",
      "type" : "",
      "Address" : "Luikersteenweg 151 bus 11, 3700 Tongeren",
      "Lat" : 50.76748809999999,
      "Long" : 5.466361099999999
    },
    {
      "Stad/gemeente" : "Tongeren",
      "Programma" : "Urbain full ",
      "Handelszaak" : "Taverne Cheers",
      "Straat + huisnummer" : "Looiersstraat 42",
      "postcode" : 3700,
      "stad" : "Tongeren",
      "type" : "",
      "Address" : "Looiersstraat 42, 3700 Tongeren",
      "Lat" : 50.7768339,
      "Long" : 5.4636061
    },
    {
      "Stad/gemeente" : "Tongeren",
      "Programma" : "Urbain full ",
      "Handelszaak" : "Wijnhuis Christiaens",
      "Straat + huisnummer" : "Ijzerbron 18/1",
      "postcode" : 3700,
      "stad" : "Tongeren",
      "type" : "",
      "Address" : "Ijzerbron 18/1, 3700 Tongeren",
      "Lat" : 50.7884478,
      "Long" : 5.4589059
    },
    {
      "Stad/gemeente" : "Tongeren",
      "Programma" : "Urbain full ",
      "Handelszaak" : "Cleo",
      "Straat + huisnummer" : "Stationslaan 8",
      "postcode" : 3700,
      "stad" : "Tongeren",
      "type" : "",
      "Address" : "Stationslaan 8, 3700 Tongeren",
      "Lat" : 50.7834499,
      "Long" : 5.471088
    },
    {
      "Stad/gemeente" : "Tongeren",
      "Programma" : "Urbain full ",
      "Handelszaak" : "Arco Textiel",
      "Straat + huisnummer" : "Putstraat 16",
      "postcode" : 3700,
      "stad" : "Tongeren",
      "type" : "",
      "Address" : "Putstraat 16, 3700 Tongeren",
      "Lat" : 50.77890540000001,
      "Long" : 5.4620206
    },
    {
      "Stad/gemeente" : "Tongeren",
      "Programma" : "Urbain full ",
      "Handelszaak" : "Retro Velinx",
      "Straat + huisnummer" : "Dijk 111/3",
      "postcode" : 3700,
      "stad" : "Tongeren",
      "type" : "",
      "Address" : "Dijk 111/3, 3700 Tongeren",
      "Lat" : 50.77508839999999,
      "Long" : 5.462228
    },
    {
      "Stad/gemeente" : "Tongeren",
      "Programma" : "Urbain full ",
      "Handelszaak" : "Dakwerken Vanloffelt",
      "Straat + huisnummer" : "Peeerweg 10",
      "postcode" : 3700,
      "stad" : "Tongeren",
      "type" : "",
      "Address" : "Peeerweg 10, 3700 Tongeren",
      "Lat" : 50.7511406,
      "Long" : 5.4975464
    },
    {
      "Stad/gemeente" : "Tongeren",
      "Programma" : "Urbain full ",
      "Handelszaak" : "Selexion Deliever",
      "Straat + huisnummer" : "Luikersteenweg 151",
      "postcode" : 3700,
      "stad" : "Tongeren",
      "type" : "",
      "Address" : "Luikersteenweg 151, 3700 Tongeren",
      "Lat" : 50.76748809999999,
      "Long" : 5.466361099999999
    },
    {
      "Stad/gemeente" : "Tongeren",
      "Programma" : "Urbain full ",
      "Handelszaak" : "JJ-Line",
      "Straat + huisnummer" : "Honnestraat 31",
      "postcode" : 3700,
      "stad" : "Tongeren",
      "type" : "",
      "Address" : "Honnestraat 31, 3700 Tongeren",
      "Lat" : 50.7525527,
      "Long" : 5.4496131
    },
    {
      "Stad/gemeente" : "Tongeren",
      "Programma" : "Urbain full ",
      "Handelszaak" : "Lingerie Silhouette",
      "Straat + huisnummer" : "Maastrichterstraat 57",
      "postcode" : 3700,
      "stad" : "Tongeren",
      "type" : "",
      "Address" : "Maastrichterstraat 57, 3700 Tongeren",
      "Lat" : 50.78213299999999,
      "Long" : 5.4663013
    },
    {
      "Stad/gemeente" : "Tongeren",
      "Programma" : "Urbain full ",
      "Handelszaak" : "Marco's Vélo Shop",
      "Straat + huisnummer" : "Wijkstraat 161",
      "postcode" : 3700,
      "stad" : "Tongeren",
      "type" : "",
      "Address" : "Wijkstraat 161, 3700 Tongeren",
      "Lat" : 50.771831,
      "Long" : 5.4623231
    },
    {
      "Stad/gemeente" : "Tongeren",
      "Programma" : "Urbain full ",
      "Handelszaak" : "Droogkuis Ambiorix",
      "Straat + huisnummer" : "Nieuwe Steenweg  2A",
      "postcode" : 3700,
      "stad" : "Tongeren",
      "type" : "",
      "Address" : "Nieuwe Steenweg  2A, 3700 Tongeren",
      "Lat" : 50.79341429999999,
      "Long" : 5.4640501
    },
    {
      "Stad/gemeente" : "Tongeren",
      "Programma" : "Urbain full ",
      "Handelszaak" : "Boetiek Ellen",
      "Straat + huisnummer" : "Maastrichterstraat 119",
      "postcode" : 3700,
      "stad" : "Tongeren",
      "type" : "",
      "Address" : "Maastrichterstraat 119, 3700 Tongeren",
      "Lat" : 50.7829451,
      "Long" : 5.469443399999999
    },
    {
      "Stad/gemeente" : "Tongeren",
      "Programma" : "Urbain full ",
      "Handelszaak" : "E&S Solar",
      "Straat + huisnummer" : "Bremstraat 12",
      "postcode" : 3700,
      "stad" : "Tongeren",
      "type" : "",
      "Address" : "Bremstraat 12, 3700 Tongeren",
      "Lat" : 50.7893588,
      "Long" : 5.475494299999999
    },
    {
      "Stad/gemeente" : "Tongeren",
      "Programma" : "Urbain full ",
      "Handelszaak" : "Electro Point bvba",
      "Straat + huisnummer" : "Achttiende - Oogstwal 21",
      "postcode" : 3700,
      "stad" : "Tongeren",
      "type" : "",
      "Address" : "Achttiende - Oogstwal 21, 3700 Tongeren",
      "Lat" : 50.78434069999999,
      "Long" : 5.469784
    },
    {
      "Stad/gemeente" : "Tongeren",
      "Programma" : "Urbain full ",
      "Handelszaak" : "Electro Smets Excellent",
      "Straat + huisnummer" : "St.Truidersteenweg 374",
      "postcode" : 3700,
      "stad" : "Tongeren",
      "type" : "",
      "Address" : "St.Truidersteenweg 374, 3700 Tongeren",
      "Lat" : 50.7803578,
      "Long" : 5.422541
    },
    {
      "Stad/gemeente" : "Tongeren",
      "Programma" : "Urbain full ",
      "Handelszaak" : "Eyewear Interim",
      "Straat + huisnummer" : "Maastrichterstraat 42",
      "postcode" : 3700,
      "stad" : "Tongeren",
      "type" : "",
      "Address" : "Maastrichterstraat 42, 3700 Tongeren",
      "Lat" : 50.7818412,
      "Long" : 5.465577199999999
    },
    {
      "Stad/gemeente" : "Tongeren",
      "Programma" : "Urbain full ",
      "Handelszaak" : "Skin Secrets",
      "Straat + huisnummer" : "Hemelingenstraat 13",
      "postcode" : 3700,
      "stad" : "Tongeren",
      "type" : "",
      "Address" : "Hemelingenstraat 13, 3700 Tongeren",
      "Lat" : 50.7814719,
      "Long" : 5.462955099999999
    },
    {
      "Stad/gemeente" : "Tongeren",
      "Programma" : "Urbain full ",
      "Handelszaak" : "Goossens",
      "Straat + huisnummer" : "Europalaan 8",
      "postcode" : 3700,
      "stad" : "Tongeren",
      "type" : "",
      "Address" : "Europalaan 8, 3700 Tongeren",
      "Lat" : 50.7877497,
      "Long" : 5.466164699999999
    },
    {
      "Stad/gemeente" : "Tongeren",
      "Programma" : "Urbain full ",
      "Handelszaak" : "Hairpoint Niki",
      "Straat + huisnummer" : "Sint-Maternuswal 2/8",
      "postcode" : 3700,
      "stad" : "Tongeren",
      "type" : "",
      "Address" : "Sint-Maternuswal 2/8, 3700 Tongeren",
      "Lat" : 50.7831161,
      "Long" : 5.4626263
    },
    {
      "Stad/gemeente" : "Tongeren",
      "Programma" : "Urbain full ",
      "Handelszaak" : "Herenmode Hauben",
      "Straat + huisnummer" : "Viseweg 271",
      "postcode" : 3700,
      "stad" : "Tongeren",
      "type" : "",
      "Address" : "Viseweg 271, 3700 Tongeren",
      "Lat" : 50.7731264,
      "Long" : 5.5264872
    },
    {
      "Stad/gemeente" : "Tongeren",
      "Programma" : "Urbain full ",
      "Handelszaak" : "Hema",
      "Straat + huisnummer" : "Maastrichterstraat 26-28",
      "postcode" : 3700,
      "stad" : "Tongeren",
      "type" : "",
      "Address" : "Maastrichterstraat 26-28, 3700 Tongeren",
      "Lat" : 50.78171889999999,
      "Long" : 5.4650978
    },
    {
      "Stad/gemeente" : "Tongeren",
      "Programma" : "Urbain full ",
      "Handelszaak" : "Nicole Hermans",
      "Straat + huisnummer" : "Sint-Truiderstraat 42",
      "postcode" : 3700,
      "stad" : "Tongeren",
      "type" : "",
      "Address" : "Sint-Truiderstraat 42, 3700 Tongeren",
      "Lat" : 50.78028,
      "Long" : 5.4613486
    },
    {
      "Stad/gemeente" : "Tongeren",
      "Programma" : "Urbain full ",
      "Handelszaak" : "Infini",
      "Straat + huisnummer" : "Maastrichterstraat 67",
      "postcode" : 3700,
      "stad" : "Tongeren",
      "type" : "",
      "Address" : "Maastrichterstraat 67, 3700 Tongeren",
      "Lat" : 50.7822308,
      "Long" : 5.4666802
    },
    {
      "Stad/gemeente" : "Tongeren",
      "Programma" : "Urbain full ",
      "Handelszaak" : "Intermezzo",
      "Straat + huisnummer" : "Grote Markt 13, Intermezzo ",
      "postcode" : 3700,
      "stad" : "Tongeren",
      "type" : "",
      "Address" : "Grote Markt 13, Intermezzo , 3700 Tongeren",
      "Lat" : 50.78419,
      "Long" : 5.474489999999999
    },
    {
      "Stad/gemeente" : "Tongeren",
      "Programma" : "Urbain full ",
      "Handelszaak" : "Intertoys",
      "Straat + huisnummer" : "Maastrichterstraat 16",
      "postcode" : 3700,
      "stad" : "Tongeren",
      "type" : "",
      "Address" : "Maastrichterstraat 16, 3700 Tongeren",
      "Lat" : 50.7815954,
      "Long" : 5.4645034
    },
    {
      "Stad/gemeente" : "Tongeren",
      "Programma" : "Urbain full ",
      "Handelszaak" : "JP's Brasserie",
      "Straat + huisnummer" : "Maastrichterstraat 154",
      "postcode" : 3700,
      "stad" : "Tongeren",
      "type" : "",
      "Address" : "Maastrichterstraat 154, 3700 Tongeren",
      "Lat" : 50.7831366,
      "Long" : 5.4701062
    },
    {
      "Stad/gemeente" : "Tongeren",
      "Programma" : "Urbain full ",
      "Handelszaak" : "Vossen Fashion",
      "Straat + huisnummer" : "Luikersteenweg 151 bus 16",
      "postcode" : 3700,
      "stad" : "Tongeren",
      "type" : "",
      "Address" : "Luikersteenweg 151 bus 16, 3700 Tongeren",
      "Lat" : 50.76748809999999,
      "Long" : 5.466361099999999
    },
    {
      "Stad/gemeente" : "Tongeren",
      "Programma" : "Urbain full ",
      "Handelszaak" : "Lui",
      "Straat + huisnummer" : "Maastrichterstraat 113",
      "postcode" : 3700,
      "stad" : "Tongeren",
      "type" : "",
      "Address" : "Maastrichterstraat 113, 3700 Tongeren",
      "Lat" : 50.7829086,
      "Long" : 5.4692824
    },
    {
      "Stad/gemeente" : "Tongeren",
      "Programma" : "Urbain full ",
      "Handelszaak" : "Quiksilver & Roxy",
      "Straat + huisnummer" : "Maastrichterstraat 29",
      "postcode" : 3700,
      "stad" : "Tongeren",
      "type" : "",
      "Address" : "Maastrichterstraat 29, 3700 Tongeren",
      "Lat" : 50.7816925,
      "Long" : 5.465277
    },
    {
      "Stad/gemeente" : "Tongeren",
      "Programma" : "Urbain full ",
      "Handelszaak" : "CD Daniels Lederwaren",
      "Straat + huisnummer" : "Maastrichterstraat 41",
      "postcode" : 3700,
      "stad" : "Tongeren",
      "type" : "",
      "Address" : "Maastrichterstraat 41, 3700 Tongeren",
      "Lat" : 50.7819114,
      "Long" : 5.4657078
    },
    {
      "Stad/gemeente" : "Tongeren",
      "Programma" : "Urbain full ",
      "Handelszaak" : "Dany Blue",
      "Straat + huisnummer" : "Maastrichterstraat 84",
      "postcode" : 3700,
      "stad" : "Tongeren",
      "type" : "",
      "Address" : "Maastrichterstraat 84, 3700 Tongeren",
      "Lat" : 50.78254889999999,
      "Long" : 5.4674795
    },
    {
      "Stad/gemeente" : "Tongeren",
      "Programma" : "Urbain full ",
      "Handelszaak" : "Witgoed Matton",
      "Straat + huisnummer" : "Grote Markt 1",
      "postcode" : 3700,
      "stad" : "Tongeren",
      "type" : "",
      "Address" : "Grote Markt 1, 3700 Tongeren",
      "Lat" : 50.78099599999999,
      "Long" : 5.4634339
    },
    {
      "Stad/gemeente" : "Tongeren",
      "Programma" : "Urbain full ",
      "Handelszaak" : "Mirror Design",
      "Straat + huisnummer" : "Wijkstraat 155",
      "postcode" : 3700,
      "stad" : "Tongeren",
      "type" : "",
      "Address" : "Wijkstraat 155, 3700 Tongeren",
      "Lat" : 50.7718904,
      "Long" : 5.4624904
    },
    {
      "Stad/gemeente" : "Tongeren",
      "Programma" : "Urbain full ",
      "Handelszaak" : "Goudsmid Christel Moens",
      "Straat + huisnummer" : "Hemelingenstraat 53",
      "postcode" : 3700,
      "stad" : "Tongeren",
      "type" : "",
      "Address" : "Hemelingenstraat 53, 3700 Tongeren",
      "Lat" : 50.7821535,
      "Long" : 5.4612165
    },
    {
      "Stad/gemeente" : "Tongeren",
      "Programma" : "Urbain full ",
      "Handelszaak" : "Kapsalon Christopher's",
      "Straat + huisnummer" : "Hemelingenstraat 15",
      "postcode" : 3700,
      "stad" : "Tongeren",
      "type" : "",
      "Address" : "Hemelingenstraat 15, 3700 Tongeren",
      "Lat" : 50.781467,
      "Long" : 5.462970599999999
    },
    {
      "Stad/gemeente" : "Tongeren",
      "Programma" : "Urbain full ",
      "Handelszaak" : "Coin Perdu",
      "Straat + huisnummer" : "Hemelingenstraat 18",
      "postcode" : 3700,
      "stad" : "Tongeren",
      "type" : "",
      "Address" : "Hemelingenstraat 18, 3700 Tongeren",
      "Lat" : 50.7813855,
      "Long" : 5.4629153
    },
    {
      "Stad/gemeente" : "Tongeren",
      "Programma" : "Urbain full ",
      "Handelszaak" : "Museum Kaffee - 0494061291",
      "Straat + huisnummer" : "Kielenstraat 15",
      "postcode" : 3700,
      "stad" : "Tongeren",
      "type" : "",
      "Address" : "Kielenstraat 15, 3700 Tongeren",
      "Lat" : 50.7813575,
      "Long" : 5.4662087
    },
    {
      "Stad/gemeente" : "Tongeren",
      "Programma" : "Urbain full ",
      "Handelszaak" : "Jocry",
      "Straat + huisnummer" : "Maastrichterstraat 17/A",
      "postcode" : 3700,
      "stad" : "Tongeren",
      "type" : "",
      "Address" : "Maastrichterstraat 17/A, 3700 Tongeren",
      "Lat" : 50.78152009999999,
      "Long" : 5.4643879
    },
    {
      "Stad/gemeente" : "Tongeren",
      "Programma" : "Urbain full ",
      "Handelszaak" : "Optiek Fabienne Lesecque",
      "Straat + huisnummer" : "Luikersteenweg 41 bus1",
      "postcode" : 3700,
      "stad" : "Tongeren",
      "type" : "",
      "Address" : "Luikersteenweg 41 bus1, 3700 Tongeren",
      "Lat" : 50.7734274,
      "Long" : 5.4604045
    },
    {
      "Stad/gemeente" : "Tongeren",
      "Programma" : "Urbain full ",
      "Handelszaak" : "Jos Molenaers",
      "Straat + huisnummer" : "Sint-Truiderstraat 36 /01",
      "postcode" : 3700,
      "stad" : "Tongeren",
      "type" : "",
      "Address" : "Sint-Truiderstraat 36 /01, 3700 Tongeren",
      "Lat" : 50.780322,
      "Long" : 5.4615209
    },
    {
      "Stad/gemeente" : "Tongeren",
      "Programma" : "Urbain full ",
      "Handelszaak" : "Charis",
      "Straat + huisnummer" : "Maastrichterstraat 11",
      "postcode" : 3700,
      "stad" : "Tongeren",
      "type" : "",
      "Address" : "Maastrichterstraat 11, 3700 Tongeren",
      "Lat" : 50.7814217,
      "Long" : 5.4639939
    },
    {
      "Stad/gemeente" : "Tongeren",
      "Programma" : "Urbain full ",
      "Handelszaak" : "Restaurant Etna",
      "Straat + huisnummer" : "Grote Markt 37",
      "postcode" : 3700,
      "stad" : "Tongeren",
      "type" : "",
      "Address" : "Grote Markt 37, 3700 Tongeren",
      "Lat" : 50.7803498,
      "Long" : 5.4633058
    },
    {
      "Stad/gemeente" : "Tongeren",
      "Programma" : "Urbain full ",
      "Handelszaak" : "Restaurant Konings",
      "Straat + huisnummer" : "Oude Fonteinweg 49",
      "postcode" : 3700,
      "stad" : "Tongeren",
      "type" : "",
      "Address" : "Oude Fonteinweg 49, 3700 Tongeren",
      "Lat" : 50.7875097,
      "Long" : 5.4486349
    },
    {
      "Stad/gemeente" : "Tongeren",
      "Programma" : "Urbain full ",
      "Handelszaak" : "Reynders-Daenen",
      "Straat + huisnummer" : "Viséweg 253",
      "postcode" : 3700,
      "stad" : "Tongeren",
      "type" : "",
      "Address" : "Viséweg 253, 3700 Tongeren",
      "Lat" : 50.77438859999999,
      "Long" : 5.5258101
    },
    {
      "Stad/gemeente" : "Tongeren",
      "Programma" : "Urbain full ",
      "Handelszaak" : "Au Phare",
      "Straat + huisnummer" : "Grote Markt 21",
      "postcode" : 3700,
      "stad" : "Tongeren",
      "type" : "",
      "Address" : "Grote Markt 21, 3700 Tongeren",
      "Lat" : 50.7806816,
      "Long" : 5.4633743
    },
    {
      "Stad/gemeente" : "Tongeren",
      "Programma" : "Urbain full ",
      "Handelszaak" : "Standing House",
      "Straat + huisnummer" : "Plein 12",
      "postcode" : 3700,
      "stad" : "Tongeren",
      "type" : "",
      "Address" : "Plein 12, 3700 Tongeren",
      "Lat" : 50.780036,
      "Long" : 5.463323099999999
    },
    {
      "Stad/gemeente" : "Tongeren",
      "Programma" : "Urbain full ",
      "Handelszaak" : "Stas-DeJong Restaurant",
      "Straat + huisnummer" : "Grote Markt 29",
      "postcode" : 3700,
      "stad" : "Tongeren",
      "type" : "",
      "Address" : "Grote Markt 29, 3700 Tongeren",
      "Lat" : 50.78050520000001,
      "Long" : 5.463348400000001
    },
    {
      "Stad/gemeente" : "Tongeren",
      "Programma" : "Urbain full ",
      "Handelszaak" : "t Ijsveldje",
      "Straat + huisnummer" : "Veldstraat 34",
      "postcode" : 3700,
      "stad" : "Tongeren",
      "type" : "",
      "Address" : "Veldstraat 34, 3700 Tongeren",
      "Lat" : 50.7751374,
      "Long" : 5.517823600000001
    },
    {
      "Stad/gemeente" : "Tongeren",
      "Programma" : "Urbain full ",
      "Handelszaak" : "Huize Puck",
      "Straat + huisnummer" : "Maastrichterstraat 33",
      "postcode" : 3700,
      "stad" : "Tongeren",
      "type" : "",
      "Address" : "Maastrichterstraat 33, 3700 Tongeren",
      "Lat" : 50.781748,
      "Long" : 5.465452399999999
    },
    {
      "Stad/gemeente" : "Tongeren",
      "Programma" : "Urbain full ",
      "Handelszaak" : "The 4 Seasons",
      "Straat + huisnummer" : "Hemelingenstraat 46",
      "postcode" : 3700,
      "stad" : "Tongeren",
      "type" : "",
      "Address" : "Hemelingenstraat 46, 3700 Tongeren",
      "Lat" : 50.7820299,
      "Long" : 5.462348599999999
    },
    {
      "Stad/gemeente" : "Tongeren",
      "Programma" : "Urbain full ",
      "Handelszaak" : "Casque",
      "Straat + huisnummer" : "Grote Markt 17/BA",
      "postcode" : 3700,
      "stad" : "Tongeren",
      "type" : "",
      "Address" : "Grote Markt 17/BA, 3700 Tongeren",
      "Lat" : 50.7807387,
      "Long" : 5.4633826
    },
    {
      "Stad/gemeente" : "Tongeren",
      "Programma" : "Urbain full ",
      "Handelszaak" : "Vroonen Huis",
      "Straat + huisnummer" : "Sint Truidersteenweg 8",
      "postcode" : 3700,
      "stad" : "Tongeren",
      "type" : "",
      "Address" : "Sint Truidersteenweg 8, 3700 Tongeren",
      "Lat" : 50.7798158,
      "Long" : 5.4596117
    },
    {
      "Stad/gemeente" : "Tongeren",
      "Programma" : "Urbain full ",
      "Handelszaak" : "Skincare Center Steenmans",
      "Straat + huisnummer" : "Grote Markt 3",
      "postcode" : 3700,
      "stad" : "Tongeren",
      "type" : "",
      "Address" : "Grote Markt 3, 3700 Tongeren",
      "Lat" : 50.78099839999999,
      "Long" : 5.463433999999999
    },
    {
      "Stad/gemeente" : "Tongeren",
      "Programma" : "Urbain full ",
      "Handelszaak" : "Pralibel Tongeren",
      "Straat + huisnummer" : "Grote Markt 5",
      "postcode" : 3700,
      "stad" : "Tongeren",
      "type" : "",
      "Address" : "Grote Markt 5, 3700 Tongeren",
      "Lat" : 50.7810007,
      "Long" : 5.4634342
    },
    {
      "Stad/gemeente" : "Tongeren",
      "Programma" : "Urbain full ",
      "Handelszaak" : "Schoenen Ann",
      "Straat + huisnummer" : "Hemelingenstraat 40",
      "postcode" : 3700,
      "stad" : "Tongeren",
      "type" : "",
      "Address" : "Hemelingenstraat 40, 3700 Tongeren",
      "Lat" : 50.7818757,
      "Long" : 5.4624576
    },
    {
      "Stad/gemeente" : "Tongeren",
      "Programma" : "Urbain full ",
      "Handelszaak" : "De Vishoeve",
      "Straat + huisnummer" : "Luikersteenweg 62",
      "postcode" : 3700,
      "stad" : "Tongeren",
      "type" : "",
      "Address" : "Luikersteenweg 62, 3700 Tongeren",
      "Lat" : 50.773934,
      "Long" : 5.460634199999999
    },
    {
      "Stad/gemeente" : "Tongeren",
      "Programma" : "Urbain full ",
      "Handelszaak" : "Le Comptoir",
      "Straat + huisnummer" : "Maastrichterstraat 2",
      "postcode" : 3700,
      "stad" : "Tongeren",
      "type" : "",
      "Address" : "Maastrichterstraat 2, 3700 Tongeren",
      "Lat" : 50.7807434,
      "Long" : 5.463382999999999
    },
    {
      "Stad/gemeente" : "Tongeren",
      "Programma" : "Urbain full ",
      "Handelszaak" : "Vestis",
      "Straat + huisnummer" : "Maastrichterstraat 92/1",
      "postcode" : 3700,
      "stad" : "Tongeren",
      "type" : "",
      "Address" : "Maastrichterstraat 92/1, 3700 Tongeren",
      "Lat" : 50.7825942,
      "Long" : 5.467706
    },
    {
      "Stad/gemeente" : "Tongeren",
      "Programma" : "Urbain full ",
      "Handelszaak" : "T&D Sound & Light",
      "Straat + huisnummer" : "Stationslaan 51/1",
      "postcode" : 3700,
      "stad" : "Tongeren",
      "type" : "",
      "Address" : "Stationslaan 51/1, 3700 Tongeren",
      "Lat" : 50.7837694,
      "Long" : 5.4728588
    },
    {
      "Stad/gemeente" : "Tongeren",
      "Programma" : "Urbain full ",
      "Handelszaak" : "Holle Bolle",
      "Straat + huisnummer" : "Maastrichtersteenweg 268",
      "postcode" : 3700,
      "stad" : "Tongeren",
      "type" : "",
      "Address" : "Maastrichtersteenweg 268, 3700 Tongeren",
      "Lat" : 50.7866416,
      "Long" : 5.4954237
    },
    {
      "Stad/gemeente" : "Tongeren",
      "Programma" : "Urbain full ",
      "Handelszaak" : "White Reizen",
      "Straat + huisnummer" : "Jaminestraat 1",
      "postcode" : 3700,
      "stad" : "Tongeren",
      "type" : "",
      "Address" : "Jaminestraat 1, 3700 Tongeren",
      "Lat" : 50.7830518,
      "Long" : 5.4710082
    },
    {
      "Stad/gemeente" : "Tongeren",
      "Programma" : "Urbain full ",
      "Handelszaak" : "Caliu - Paella y Tapas",
      "Straat + huisnummer" : "Piepelpoel 5",
      "postcode" : 3700,
      "stad" : "Tongeren",
      "type" : "",
      "Address" : "Piepelpoel 5, 3700 Tongeren",
      "Lat" : 50.7801658,
      "Long" : 5.4655599
    },
    {
      "Stad/gemeente" : "Tongeren",
      "Programma" : "Urbain full ",
      "Handelszaak" : "x9",
      "Straat + huisnummer" : "Maastrichterstraat 98",
      "postcode" : 3700,
      "stad" : "Tongeren",
      "type" : "",
      "Address" : "Maastrichterstraat 98, 3700 Tongeren",
      "Lat" : 50.782643,
      "Long" : 5.4679996
    },
    {
      "Stad/gemeente" : "Tongeren",
      "Programma" : "Gift Only",
      "Handelszaak" : "ActiV - Jarejo",
      "Straat + huisnummer" : "Rutterweg 63",
      "postcode" : 3700,
      "stad" : "Tongeren",
      "type" : "",
      "Address" : "Rutterweg 63, 3700 Tongeren",
      "Lat" : 50.76840259999999,
      "Long" : 5.4608531
    },
    {
      "Stad/gemeente" : "Tongeren",
      "Programma" : "Gift Only",
      "Handelszaak" : "All medica",
      "Straat + huisnummer" : "Stationslaan 47",
      "postcode" : 3700,
      "stad" : "Tongeren",
      "type" : "",
      "Address" : "Stationslaan 47, 3700 Tongeren",
      "Lat" : 50.78367129999999,
      "Long" : 5.4727194
    },
    {
      "Stad/gemeente" : "Tongeren",
      "Programma" : "Gift Only",
      "Handelszaak" : "Ambiotel",
      "Straat + huisnummer" : "Veemarkt 2",
      "postcode" : 3700,
      "stad" : "Tongeren",
      "type" : "",
      "Address" : "Veemarkt 2, 3700 Tongeren",
      "Lat" : 50.7830581,
      "Long" : 5.4703624
    },
    {
      "Stad/gemeente" : "Tongeren",
      "Programma" : "Gift Only",
      "Handelszaak" : "Apotheek Bollaers",
      "Straat + huisnummer" : "Stationslaan 4",
      "postcode" : 3700,
      "stad" : "Tongeren",
      "type" : "",
      "Address" : "Stationslaan 4, 3700 Tongeren",
      "Lat" : 50.7832946,
      "Long" : 5.4707314
    },
    {
      "Stad/gemeente" : "Tongeren",
      "Programma" : "Gift Only",
      "Handelszaak" : "Apotheek Coenegrachts",
      "Straat + huisnummer" : "Maastrichterstraat 100",
      "postcode" : 3700,
      "stad" : "Tongeren",
      "type" : "",
      "Address" : "Maastrichterstraat 100, 3700 Tongeren",
      "Lat" : 50.7826889,
      "Long" : 5.4680692
    },
    {
      "Stad/gemeente" : "Tongeren",
      "Programma" : "Gift Only",
      "Handelszaak" : "Apotheek Forum",
      "Straat + huisnummer" : "Grote Markt 32",
      "postcode" : 3700,
      "stad" : "Tongeren",
      "type" : "",
      "Address" : "Grote Markt 32, 3700 Tongeren",
      "Lat" : 50.7802292,
      "Long" : 5.463310799999999
    },
    {
      "Stad/gemeente" : "Tongeren",
      "Programma" : "Gift Only",
      "Handelszaak" : "Aqua-Shop",
      "Straat + huisnummer" : "Wijkstraat 165",
      "postcode" : 3700,
      "stad" : "Tongeren",
      "type" : "",
      "Address" : "Wijkstraat 165, 3700 Tongeren",
      "Lat" : 50.7717871,
      "Long" : 5.462216799999999
    },
    {
      "Stad/gemeente" : "Tongeren",
      "Programma" : "Gift Only",
      "Handelszaak" : "Avance",
      "Straat + huisnummer" : " Luikersteenweg 151 bus 4",
      "postcode" : 3700,
      "stad" : "Tongeren",
      "type" : "",
      "Address" : " Luikersteenweg 151 bus 4, 3700 Tongeren",
      "Lat" : 50.76748809999999,
      "Long" : 5.466361099999999
    },
    {
      "Stad/gemeente" : "Tongeren",
      "Programma" : "Gift Only",
      "Handelszaak" : "Axento",
      "Straat + huisnummer" : "Maastrichterstraat 51",
      "postcode" : 3700,
      "stad" : "Tongeren",
      "type" : "",
      "Address" : "Maastrichterstraat 51, 3700 Tongeren",
      "Lat" : 50.7820773,
      "Long" : 5.4660701
    },
    {
      "Stad/gemeente" : "Tongeren",
      "Programma" : "Gift Only",
      "Handelszaak" : "Bakkerij Baerts",
      "Straat + huisnummer" : "Sint-Truiderstraat 34",
      "postcode" : 3700,
      "stad" : "Tongeren",
      "type" : "",
      "Address" : "Sint-Truiderstraat 34, 3700 Tongeren",
      "Lat" : 50.780311,
      "Long" : 5.461593499999999
    },
    {
      "Stad/gemeente" : "Tongeren",
      "Programma" : "Gift Only",
      "Handelszaak" : "Basilica Ice",
      "Straat + huisnummer" : "Romeinse Kassei 253",
      "postcode" : 3700,
      "stad" : "Tongeren",
      "type" : "",
      "Address" : "Romeinse Kassei 253, 3700 Tongeren",
      "Lat" : 50.7676126,
      "Long" : 5.4353318
    },
    {
      "Stad/gemeente" : "Tongeren",
      "Programma" : "Gift Only",
      "Handelszaak" : "Bel & Bo",
      "Straat + huisnummer" : " Luikersteenweg 151 bus 3",
      "postcode" : 3700,
      "stad" : "Tongeren",
      "type" : "",
      "Address" : " Luikersteenweg 151 bus 3, 3700 Tongeren",
      "Lat" : 50.76748809999999,
      "Long" : 5.466361099999999
    },
    {
      "Stad/gemeente" : "Tongeren",
      "Programma" : "Gift Only",
      "Handelszaak" : "Boulet Electro & Decoratie",
      "Straat + huisnummer" : "Sint-Truiderstraat 1",
      "postcode" : 3700,
      "stad" : "Tongeren",
      "type" : "",
      "Address" : "Sint-Truiderstraat 1, 3700 Tongeren",
      "Lat" : 50.7806322,
      "Long" : 5.4629334
    },
    {
      "Stad/gemeente" : "Tongeren",
      "Programma" : "Gift Only",
      "Handelszaak" : "Brilbaar",
      "Straat + huisnummer" : "Grote Markt 18",
      "postcode" : 3700,
      "stad" : "Tongeren",
      "type" : "",
      "Address" : "Grote Markt 18, 3700 Tongeren",
      "Lat" : 50.7805011,
      "Long" : 5.4633854
    },
    {
      "Stad/gemeente" : "Tongeren",
      "Programma" : "Gift Only",
      "Handelszaak" : "Brouwerij Bremans",
      "Straat + huisnummer" : "Eerste-Meistraat 17",
      "postcode" : 3700,
      "stad" : "Tongeren",
      "type" : "",
      "Address" : "Eerste-Meistraat 17, 3700 Tongeren",
      "Lat" : 50.7843959,
      "Long" : 5.4946019
    },
    {
      "Stad/gemeente" : "Tongeren",
      "Programma" : "Gift Only",
      "Handelszaak" : "Bruno service station Tongeren",
      "Straat + huisnummer" : "Luikersteenweg 216",
      "postcode" : 3700,
      "stad" : "Tongeren",
      "type" : "",
      "Address" : "Luikersteenweg 216, 3700 Tongeren",
      "Lat" : 50.76489609999999,
      "Long" : 5.4711829
    },
    {
      "Stad/gemeente" : "Tongeren",
      "Programma" : "Gift Only",
      "Handelszaak" : "C&A",
      "Straat + huisnummer" : "Maastrichterstraat 48",
      "postcode" : 3700,
      "stad" : "Tongeren",
      "type" : "",
      "Address" : "Maastrichterstraat 48, 3700 Tongeren",
      "Lat" : 50.78213419999999,
      "Long" : 5.4659552
    },
    {
      "Stad/gemeente" : "Tongeren",
      "Programma" : "Gift Only",
      "Handelszaak" : "Caroline",
      "Straat + huisnummer" : "Maastrichterstraat 25 bus 1",
      "postcode" : 3700,
      "stad" : "Tongeren",
      "type" : "",
      "Address" : "Maastrichterstraat 25 bus 1, 3700 Tongeren",
      "Lat" : 50.7816713,
      "Long" : 5.4652036
    },
    {
      "Stad/gemeente" : "Tongeren",
      "Programma" : "Gift Only",
      "Handelszaak" : "Carthago Schoenen",
      "Straat + huisnummer" : "Maastrichterstraat 95",
      "postcode" : 3700,
      "stad" : "Tongeren",
      "type" : "",
      "Address" : "Maastrichterstraat 95, 3700 Tongeren",
      "Lat" : 50.7827083,
      "Long" : 5.4684867
    },
    {
      "Stad/gemeente" : "Tongeren",
      "Programma" : "Gift Only",
      "Handelszaak" : "Centerfruit",
      "Straat + huisnummer" : " Luikersteenweg 336",
      "postcode" : 3700,
      "stad" : "Tongeren",
      "type" : "",
      "Address" : " Luikersteenweg 336, 3700 Tongeren",
      "Lat" : 50.7555722,
      "Long" : 5.4845713
    },
    {
      "Stad/gemeente" : "Tongeren",
      "Programma" : "Gift Only",
      "Handelszaak" : "Chuckwagon B-BQ",
      "Straat + huisnummer" : "Luikersteenweg 117 2",
      "postcode" : 3700,
      "stad" : "Tongeren",
      "type" : "",
      "Address" : "Luikersteenweg 117 2, 3700 Tongeren",
      "Lat" : 50.7708793,
      "Long" : 5.4625989
    },
    {
      "Stad/gemeente" : "Tongeren",
      "Programma" : "Gift Only",
      "Handelszaak" : "Colora",
      "Straat + huisnummer" : "Luikersteenweg 111",
      "postcode" : 3700,
      "stad" : "Tongeren",
      "type" : "",
      "Address" : "Luikersteenweg 111, 3700 Tongeren",
      "Lat" : 50.77115569999999,
      "Long" : 5.4622161
    },
    {
      "Stad/gemeente" : "Tongeren",
      "Programma" : "Gift Only",
      "Handelszaak" : "d'Offis",
      "Straat + huisnummer" : "Luikersteenweg 158",
      "postcode" : 3700,
      "stad" : "Tongeren",
      "type" : "",
      "Address" : "Luikersteenweg 158, 3700 Tongeren",
      "Lat" : 50.7685943,
      "Long" : 5.4659169
    },
    {
      "Stad/gemeente" : "Tongeren",
      "Programma" : "Gift Only",
      "Handelszaak" : "Damart",
      "Straat + huisnummer" : "Via Julianus 27",
      "postcode" : 3700,
      "stad" : "Tongeren",
      "type" : "",
      "Address" : "Via Julianus 27, 3700 Tongeren",
      "Lat" : 50.78419,
      "Long" : 5.474489999999999
    },
    {
      "Stad/gemeente" : "Tongeren",
      "Programma" : "Gift Only",
      "Handelszaak" : "Daniels Tailors",
      "Straat + huisnummer" : "Maastrichterstraat 144",
      "postcode" : 3700,
      "stad" : "Tongeren",
      "type" : "",
      "Address" : "Maastrichterstraat 144, 3700 Tongeren",
      "Lat" : 50.78306749999999,
      "Long" : 5.469685399999999
    },
    {
      "Stad/gemeente" : "Tongeren",
      "Programma" : "Gift Only",
      "Handelszaak" : "De Kruidentuin",
      "Straat + huisnummer" : "Maastrichterstraat 89",
      "postcode" : 3700,
      "stad" : "Tongeren",
      "type" : "",
      "Address" : "Maastrichterstraat 89, 3700 Tongeren",
      "Lat" : 50.7824786,
      "Long" : 5.467471
    },
    {
      "Stad/gemeente" : "Tongeren",
      "Programma" : "Gift Only",
      "Handelszaak" : "De Mijlpaal",
      "Straat + huisnummer" : "Sint-Truiderstraat 25",
      "postcode" : 3700,
      "stad" : "Tongeren",
      "type" : "",
      "Address" : "Sint-Truiderstraat 25, 3700 Tongeren",
      "Lat" : 50.7803842,
      "Long" : 5.4616071
    },
    {
      "Stad/gemeente" : "Tongeren",
      "Programma" : "Gift Only",
      "Handelszaak" : "Descarto",
      "Straat + huisnummer" : "Luikersteenweg 151 bus 29/31",
      "postcode" : 3700,
      "stad" : "Tongeren",
      "type" : "",
      "Address" : "Luikersteenweg 151 bus 29/31, 3700 Tongeren",
      "Lat" : 50.76748809999999,
      "Long" : 5.466361099999999
    },
    {
      "Stad/gemeente" : "Tongeren",
      "Programma" : "Gift Only",
      "Handelszaak" : "E5-mode",
      "Straat + huisnummer" : "Luikersteenweg 151B",
      "postcode" : 3700,
      "stad" : "Tongeren",
      "type" : "",
      "Address" : "Luikersteenweg 151B, 3700 Tongeren",
      "Lat" : 50.76748809999999,
      "Long" : 5.466361099999999
    },
    {
      "Stad/gemeente" : "Tongeren",
      "Programma" : "Gift Only",
      "Handelszaak" : "Electro Biesmans",
      "Straat + huisnummer" : "Luikersteenweg 97",
      "postcode" : 3700,
      "stad" : "Tongeren",
      "type" : "",
      "Address" : "Luikersteenweg 97, 3700 Tongeren",
      "Lat" : 50.7718536,
      "Long" : 5.461098799999999
    },
    {
      "Stad/gemeente" : "Tongeren",
      "Programma" : "Gift Only",
      "Handelszaak" : "Fil D'or",
      "Straat + huisnummer" : "Sint-Truiderstraat 32",
      "postcode" : 3700,
      "stad" : "Tongeren",
      "type" : "",
      "Address" : "Sint-Truiderstraat 32, 3700 Tongeren",
      "Lat" : 50.780351,
      "Long" : 5.4616435
    },
    {
      "Stad/gemeente" : "Tongeren",
      "Programma" : "Gift Only",
      "Handelszaak" : "Garage Grommen",
      "Straat + huisnummer" : "Luikersteenweg 212",
      "postcode" : 3700,
      "stad" : "Tongeren",
      "type" : "",
      "Address" : "Luikersteenweg 212, 3700 Tongeren",
      "Lat" : 50.7655293,
      "Long" : 5.4704574
    },
    {
      "Stad/gemeente" : "Tongeren",
      "Programma" : "Gift Only",
      "Handelszaak" : "Gilissen Junior",
      "Straat + huisnummer" : "Maastrichterstraat 21",
      "postcode" : 3700,
      "stad" : "Tongeren",
      "type" : "",
      "Address" : "Maastrichterstraat 21, 3700 Tongeren",
      "Lat" : 50.781636,
      "Long" : 5.465035599999999
    },
    {
      "Stad/gemeente" : "Tongeren",
      "Programma" : "Gift Only",
      "Handelszaak" : "Gordijnen Princen",
      "Straat + huisnummer" : "Sint-Truiderstraat 45",
      "postcode" : 3700,
      "stad" : "Tongeren",
      "type" : "",
      "Address" : "Sint-Truiderstraat 45, 3700 Tongeren",
      "Lat" : 50.78020189999999,
      "Long" : 5.4612514
    },
    {
      "Stad/gemeente" : "Tongeren",
      "Programma" : "Gift Only",
      "Handelszaak" : "Hubo",
      "Straat + huisnummer" : "Luikersteenweg 151",
      "postcode" : 3700,
      "stad" : "Tongeren",
      "type" : "",
      "Address" : "Luikersteenweg 151, 3700 Tongeren",
      "Lat" : 50.76748809999999,
      "Long" : 5.466361099999999
    },
    {
      "Stad/gemeente" : "Tongeren",
      "Programma" : "Gift Only",
      "Handelszaak" : "Huis Ariane",
      "Straat + huisnummer" : "Maastrichterstraat 49",
      "postcode" : 3700,
      "stad" : "Tongeren",
      "type" : "",
      "Address" : "Maastrichterstraat 49, 3700 Tongeren",
      "Lat" : 50.7820267,
      "Long" : 5.4660077
    },
    {
      "Stad/gemeente" : "Tongeren",
      "Programma" : "Gift Only",
      "Handelszaak" : "Jufa",
      "Straat + huisnummer" : "Sint-Truidersteenweg 39",
      "postcode" : 3700,
      "stad" : "Tongeren",
      "type" : "",
      "Address" : "Sint-Truidersteenweg 39, 3700 Tongeren",
      "Lat" : 50.7792093,
      "Long" : 5.455729499999999
    },
    {
      "Stad/gemeente" : "Tongeren",
      "Programma" : "Gift Only",
      "Handelszaak" : "Kapsalon Henri",
      "Straat + huisnummer" : "De Schiervelstraat 7",
      "postcode" : 3700,
      "stad" : "Tongeren",
      "type" : "",
      "Address" : "De Schiervelstraat 7, 3700 Tongeren",
      "Lat" : 50.7820247,
      "Long" : 5.4682195
    },
    {
      "Stad/gemeente" : "Tongeren",
      "Programma" : "Gift Only",
      "Handelszaak" : "L&L",
      "Straat + huisnummer" : "Maastrichterstraat 56",
      "postcode" : 3700,
      "stad" : "Tongeren",
      "type" : "",
      "Address" : "Maastrichterstraat 56, 3700 Tongeren",
      "Lat" : 50.78226189999999,
      "Long" : 5.4663996
    },
    {
      "Stad/gemeente" : "Tongeren",
      "Programma" : "Gift Only",
      "Handelszaak" : "Lambrechts-Nicolaers",
      "Straat + huisnummer" : "Luikersteenweg 222",
      "postcode" : 3700,
      "stad" : "Tongeren",
      "type" : "",
      "Address" : "Luikersteenweg 222, 3700 Tongeren",
      "Lat" : 50.7625614,
      "Long" : 5.4745224
    },
    {
      "Stad/gemeente" : "Tongeren",
      "Programma" : "Gift Only",
      "Handelszaak" : "Le retour conceptstore",
      "Straat + huisnummer" : "Hemelingenstraat 3",
      "postcode" : 3700,
      "stad" : "Tongeren",
      "type" : "",
      "Address" : "Hemelingenstraat 3, 3700 Tongeren",
      "Lat" : 50.7813175,
      "Long" : 5.463175199999999
    },
    {
      "Stad/gemeente" : "Tongeren",
      "Programma" : "Gift Only",
      "Handelszaak" : "Lingerie Vanclee",
      "Straat + huisnummer" : "Maastrichterstraat 70",
      "postcode" : 3700,
      "stad" : "Tongeren",
      "type" : "",
      "Address" : "Maastrichterstraat 70, 3700 Tongeren",
      "Lat" : 50.7818615,
      "Long" : 5.4655817
    },
    {
      "Stad/gemeente" : "Tongeren",
      "Programma" : "Gift Only",
      "Handelszaak" : "Litchelli",
      "Straat + huisnummer" : "Sint-Truiderstraat 31/B",
      "postcode" : 3700,
      "stad" : "Tongeren",
      "type" : "",
      "Address" : "Sint-Truiderstraat 31/B, 3700 Tongeren",
      "Lat" : 50.78035089999999,
      "Long" : 5.4614465
    },
    {
      "Stad/gemeente" : "Tongeren",
      "Programma" : "Gift Only",
      "Handelszaak" : "M Style",
      "Straat + huisnummer" : "Sint-Truidersteenweg 140",
      "postcode" : 3700,
      "stad" : "Tongeren",
      "type" : "",
      "Address" : "Sint-Truidersteenweg 140, 3700 Tongeren",
      "Lat" : 50.7773383,
      "Long" : 5.4467192
    },
    {
      "Stad/gemeente" : "Tongeren",
      "Programma" : "Gift Only",
      "Handelszaak" : "Maes Koffie",
      "Straat + huisnummer" : "Maastrichterstraat 72",
      "postcode" : 3700,
      "stad" : "Tongeren",
      "type" : "",
      "Address" : "Maastrichterstraat 72, 3700 Tongeren",
      "Lat" : 50.78241020000001,
      "Long" : 5.4668747
    },
    {
      "Stad/gemeente" : "Tongeren",
      "Programma" : "Gift Only",
      "Handelszaak" : "Magis Restaurant",
      "Straat + huisnummer" : "Hemelingenstraat 23",
      "postcode" : 3700,
      "stad" : "Tongeren",
      "type" : "",
      "Address" : "Hemelingenstraat 23, 3700 Tongeren",
      "Lat" : 50.7817103,
      "Long" : 5.4627076
    },
    {
      "Stad/gemeente" : "Tongeren",
      "Programma" : "Gift Only",
      "Handelszaak" : "One boutique",
      "Straat + huisnummer" : "Maastrichterstraat 5",
      "postcode" : 3700,
      "stad" : "Tongeren",
      "type" : "",
      "Address" : "Maastrichterstraat 5, 3700 Tongeren",
      "Lat" : 50.78100939999999,
      "Long" : 5.4635872
    },
    {
      "Stad/gemeente" : "Tongeren",
      "Programma" : "Gift Only",
      "Handelszaak" : "Patisserie Blanckaert",
      "Straat + huisnummer" : "Maastrichterstraat 62",
      "postcode" : 3700,
      "stad" : "Tongeren",
      "type" : "",
      "Address" : "Maastrichterstraat 62, 3700 Tongeren",
      "Lat" : 50.7823269,
      "Long" : 5.466579599999999
    },
    {
      "Stad/gemeente" : "Tongeren",
      "Programma" : "Gift Only",
      "Handelszaak" : "Plugers Interieur",
      "Straat + huisnummer" : "Sint-Truiderstraat 28",
      "postcode" : 3700,
      "stad" : "Tongeren",
      "type" : "",
      "Address" : "Sint-Truiderstraat 28, 3700 Tongeren",
      "Lat" : 50.7804246,
      "Long" : 5.4619679
    },
    {
      "Stad/gemeente" : "Tongeren",
      "Programma" : "Gift Only",
      "Handelszaak" : "Press Shop Maastrichterstraat",
      "Straat + huisnummer" : "Maastrichterstraat 75",
      "postcode" : 3700,
      "stad" : "Tongeren",
      "type" : "",
      "Address" : "Maastrichterstraat 75, 3700 Tongeren",
      "Lat" : 50.7823123,
      "Long" : 5.4669082
    },
    {
      "Stad/gemeente" : "Tongeren",
      "Programma" : "Gift Only",
      "Handelszaak" : "Press Shop Sint-Truiderstraat",
      "Straat + huisnummer" : "Sint-Truiderstraat 14",
      "postcode" : 3700,
      "stad" : "Tongeren",
      "type" : "",
      "Address" : "Sint-Truiderstraat 14, 3700 Tongeren",
      "Lat" : 50.7804818,
      "Long" : 5.4623177
    },
    {
      "Stad/gemeente" : "Tongeren",
      "Programma" : "Gift Only",
      "Handelszaak" : "Press Shop Stationslaan",
      "Straat + huisnummer" : "Stationslaan 13/b2",
      "postcode" : 3700,
      "stad" : "Tongeren",
      "type" : "",
      "Address" : "Stationslaan 13/b2, 3700 Tongeren",
      "Lat" : 50.7833669,
      "Long" : 5.4714966
    },
    {
      "Stad/gemeente" : "Tongeren",
      "Programma" : "Gift Only",
      "Handelszaak" : "Raepers Fashion",
      "Straat + huisnummer" : "Maastrichterstraat 39",
      "postcode" : 3700,
      "stad" : "Tongeren",
      "type" : "",
      "Address" : "Maastrichterstraat 39, 3700 Tongeren",
      "Lat" : 50.7818925,
      "Long" : 5.4656796
    },
    {
      "Stad/gemeente" : "Tongeren",
      "Programma" : "Gift Only",
      "Handelszaak" : "Restaurant Vendôme",
      "Straat + huisnummer" : "Sint-Truiderstraat 27",
      "postcode" : 3700,
      "stad" : "Tongeren",
      "type" : "",
      "Address" : "Sint-Truiderstraat 27, 3700 Tongeren",
      "Lat" : 50.7803727,
      "Long" : 5.4615971
    },
    {
      "Stad/gemeente" : "Tongeren",
      "Programma" : "Gift Only",
      "Handelszaak" : "River Woods",
      "Straat + huisnummer" : "Maastrichterstraat 45",
      "postcode" : 3700,
      "stad" : "Tongeren",
      "type" : "",
      "Address" : "Maastrichterstraat 45, 3700 Tongeren",
      "Lat" : 50.7819891,
      "Long" : 5.4658986
    },
    {
      "Stad/gemeente" : "Tongeren",
      "Programma" : "Gift Only",
      "Handelszaak" : "Rok4",
      "Straat + huisnummer" : "Hemelingenstraat 34 bus 1",
      "postcode" : 3700,
      "stad" : "Tongeren",
      "type" : "",
      "Address" : "Hemelingenstraat 34 bus 1, 3700 Tongeren",
      "Lat" : 50.7817222,
      "Long" : 5.462575
    },
    {
      "Stad/gemeente" : "Tongeren",
      "Programma" : "Gift Only",
      "Handelszaak" : "Schoen-en sleutelmakerij express",
      "Straat + huisnummer" : "Maastrichterstraat 142",
      "postcode" : 3700,
      "stad" : "Tongeren",
      "type" : "",
      "Address" : "Maastrichterstraat 142, 3700 Tongeren",
      "Lat" : 50.7830822,
      "Long" : 5.4698951
    },
    {
      "Stad/gemeente" : "Tongeren",
      "Programma" : "Gift Only",
      "Handelszaak" : "Schoenen Gilissen",
      "Straat + huisnummer" : "Maastrichterstraat 22",
      "postcode" : 3700,
      "stad" : "Tongeren",
      "type" : "",
      "Address" : "Maastrichterstraat 22, 3700 Tongeren",
      "Lat" : 50.7816909,
      "Long" : 5.4650303
    },
    {
      "Stad/gemeente" : "Tongeren",
      "Programma" : "Gift Only",
      "Handelszaak" : "Schoenen Torfs",
      "Straat + huisnummer" : "Luikersteenweg 151 bus 8",
      "postcode" : 3700,
      "stad" : "Tongeren",
      "type" : "",
      "Address" : "Luikersteenweg 151 bus 8, 3700 Tongeren",
      "Lat" : 50.76748809999999,
      "Long" : 5.466361099999999
    },
    {
      "Stad/gemeente" : "Tongeren",
      "Programma" : "Gift Only",
      "Handelszaak" : "Seronvalle",
      "Straat + huisnummer" : "Luikersteenweg 40",
      "postcode" : 3700,
      "stad" : "Tongeren",
      "type" : "",
      "Address" : "Luikersteenweg 40, 3700 Tongeren",
      "Lat" : 50.7745311,
      "Long" : 5.461046
    },
    {
      "Stad/gemeente" : "Tongeren",
      "Programma" : "Gift Only",
      "Handelszaak" : "Simon Sfeer",
      "Straat + huisnummer" : "Eeuwfeestwal 28",
      "postcode" : 3700,
      "stad" : "Tongeren",
      "type" : "",
      "Address" : "Eeuwfeestwal 28, 3700 Tongeren",
      "Lat" : 50.7807751,
      "Long" : 5.4603541
    },
    {
      "Stad/gemeente" : "Tongeren",
      "Programma" : "Gift Only",
      "Handelszaak" : "Smakhoekje",
      "Straat + huisnummer" : "Luikersteenweg 76",
      "postcode" : 3700,
      "stad" : "Tongeren",
      "type" : "",
      "Address" : "Luikersteenweg 76, 3700 Tongeren",
      "Lat" : 50.7736196,
      "Long" : 5.4604846
    },
    {
      "Stad/gemeente" : "Tongeren",
      "Programma" : "Gift Only",
      "Handelszaak" : "Standaard Boekhandel",
      "Straat + huisnummer" : "Maastrichterstraat 20 B",
      "postcode" : 3700,
      "stad" : "Tongeren",
      "type" : "",
      "Address" : "Maastrichterstraat 20 B, 3700 Tongeren",
      "Lat" : 50.7816599,
      "Long" : 5.4647149
    },
    {
      "Stad/gemeente" : "Tongeren",
      "Programma" : "Gift Only",
      "Handelszaak" : "Steff.Line",
      "Straat + huisnummer" : "Maastrichterstraat 83",
      "postcode" : 3700,
      "stad" : "Tongeren",
      "type" : "",
      "Address" : "Maastrichterstraat 83, 3700 Tongeren",
      "Lat" : 50.7823732,
      "Long" : 5.4671514
    },
    {
      "Stad/gemeente" : "Tongeren",
      "Programma" : "Gift Only",
      "Handelszaak" : "t Soete Huys",
      "Straat + huisnummer" : "Sint-Truiderstraat 40",
      "postcode" : 3700,
      "stad" : "Tongeren",
      "type" : "",
      "Address" : "Sint-Truiderstraat 40, 3700 Tongeren",
      "Lat" : 50.7802946,
      "Long" : 5.4614048
    },
    {
      "Stad/gemeente" : "Tongeren",
      "Programma" : "Gift Only",
      "Handelszaak" : "The Pub",
      "Straat + huisnummer" : "Grote Markt 7",
      "postcode" : 3700,
      "stad" : "Tongeren",
      "type" : "",
      "Address" : "Grote Markt 7, 3700 Tongeren",
      "Lat" : 50.7810031,
      "Long" : 5.463434299999999
    },
    {
      "Stad/gemeente" : "Tongeren",
      "Programma" : "Gift Only",
      "Handelszaak" : "Verf met Advies",
      "Straat + huisnummer" : " St.-Truidersteenweg 198",
      "postcode" : 3700,
      "stad" : "Tongeren",
      "type" : "",
      "Address" : " St.-Truidersteenweg 198, 8970 Tongeren",
      "Lat" : 50.7768989,
      "Long" : 5.443362899999999
    },
    {
      "Stad/gemeente" : "Tongeren",
      "Programma" : "Gift Only",
      "Handelszaak" : "Yves Rocher",
      "Straat + huisnummer" : "Maastrichterstraat 73",
      "postcode" : 3700,
      "stad" : "Tongeren",
      "type" : "",
      "Address" : "Maastrichterstraat 73, 8970 Tongeren",
      "Lat" : 50.7822948,
      "Long" : 5.466849
    },
    {
      "Stad/gemeente" : "Poperinge",
      "Programma" : "Urbain full ",
      "Handelszaak" : "'t Boeketje",
      "Straat + huisnummer" : "Casselstraat 89",
      "postcode" : 8970,
      "stad" : "Poperinge",
      "type" : "",
      "Address" : "Casselstraat 89, 8970 Poperinge",
      "Lat" : 50.8514372,
      "Long" : 2.7202183
    },
    {
      "Stad/gemeente" : "Poperinge",
      "Programma" : "Urbain full ",
      "Handelszaak" : "'t Hoekske",
      "Straat + huisnummer" : "Polenlaan 2",
      "postcode" : 8970,
      "stad" : "Poperinge",
      "type" : "",
      "Address" : "Polenlaan 2, 8970 Poperinge",
      "Lat" : 50.8518177,
      "Long" : 2.7307301
    },
    {
      "Stad/gemeente" : "Poperinge",
      "Programma" : "Urbain full ",
      "Handelszaak" : "'t Kruideniertje",
      "Straat + huisnummer" : "Casselstraat 175",
      "postcode" : 8970,
      "stad" : "Poperinge",
      "type" : "",
      "Address" : "Casselstraat 175, 8970 Poperinge",
      "Lat" : 50.8494058,
      "Long" : 2.7185373
    },
    {
      "Stad/gemeente" : "Poperinge",
      "Programma" : "Urbain full ",
      "Handelszaak" : "'t Zippertje",
      "Straat + huisnummer" : "Ieperstraat 35",
      "postcode" : 8970,
      "stad" : "Poperinge",
      "type" : "",
      "Address" : "Ieperstraat 35, 8970 Poperinge",
      "Lat" : 50.8543333,
      "Long" : 2.7286011
    },
    {
      "Stad/gemeente" : "Poperinge",
      "Programma" : "Urbain full ",
      "Handelszaak" : "@ Mobistar Poperinge",
      "Straat + huisnummer" : "Ieperstraat 18",
      "postcode" : 8970,
      "stad" : "Poperinge",
      "type" : "",
      "Address" : "Ieperstraat 18, 8970 Poperinge",
      "Lat" : 50.8547339,
      "Long" : 2.7278115
    },
    {
      "Stad/gemeente" : "Poperinge",
      "Programma" : "Urbain full ",
      "Handelszaak" : "AD Delhaize Poperinge",
      "Straat + huisnummer" : "Ieperseweg 10-14",
      "postcode" : 8970,
      "stad" : "Poperinge",
      "type" : "",
      "Address" : "Ieperseweg 10-14, 8970 Poperinge",
      "Lat" : 50.8550966,
      "Long" : 2.749006
    },
    {
      "Stad/gemeente" : "Poperinge",
      "Programma" : "Urbain full ",
      "Handelszaak" : "Amfora Restaurant-Hotel-bar",
      "Straat + huisnummer" : "Grote Markt 36",
      "postcode" : 8970,
      "stad" : "Poperinge",
      "type" : "",
      "Address" : "Grote Markt 36, 8972 Poperinge",
      "Lat" : 50.8557273,
      "Long" : 2.7269718
    },
    {
      "Stad/gemeente" : "Poperinge",
      "Programma" : "Urbain full ",
      "Handelszaak" : "Atelier DD",
      "Straat + huisnummer" : "Gasthuisstraat 40",
      "postcode" : 8970,
      "stad" : "Poperinge",
      "type" : "",
      "Address" : "Gasthuisstraat 40, 8970 Poperinge",
      "Lat" : 50.8557479,
      "Long" : 2.723177
    },
    {
      "Stad/gemeente" : "Poperinge",
      "Programma" : "Urbain full ",
      "Handelszaak" : "Au Petit Jardin",
      "Straat + huisnummer" : "Couthoflaan 32",
      "postcode" : 8972,
      "stad" : "Poperinge Proven",
      "type" : "",
      "Address" : "Couthoflaan 32, 8970 Poperinge Proven",
      "Lat" : 50.87301309999999,
      "Long" : 2.6811783
    },
    {
      "Stad/gemeente" : "Poperinge",
      "Programma" : "Urbain full ",
      "Handelszaak" : "Automatic Gates",
      "Straat + huisnummer" : "Duinkerkestraat 146",
      "postcode" : 8970,
      "stad" : "Poperinge",
      "type" : "",
      "Address" : "Duinkerkestraat 146, 8970 Poperinge",
      "Lat" : 50.8557761,
      "Long" : 2.7131863
    },
    {
      "Stad/gemeente" : "Poperinge",
      "Programma" : "Urbain full ",
      "Handelszaak" : "Bakkerij Rabaut",
      "Straat + huisnummer" : "Vlamingstraat 6",
      "postcode" : 8970,
      "stad" : "Poperinge",
      "type" : "",
      "Address" : "Vlamingstraat 6, 8970 Poperinge",
      "Lat" : 50.8555031,
      "Long" : 2.7253668
    },
    {
      "Stad/gemeente" : "Poperinge",
      "Programma" : "Urbain full ",
      "Handelszaak" : "Bakkerij Vandecasteele",
      "Straat + huisnummer" : "Ieperstraat 47",
      "postcode" : 8970,
      "stad" : "Poperinge",
      "type" : "",
      "Address" : "Ieperstraat 47, 8970 Poperinge",
      "Lat" : 50.8541287,
      "Long" : 2.7292649
    },
    {
      "Stad/gemeente" : "Poperinge",
      "Programma" : "Urbain full ",
      "Handelszaak" : "Banketbakkerij Sansen",
      "Straat + huisnummer" : "Gasthuisstraat 36",
      "postcode" : 8970,
      "stad" : "Poperinge",
      "type" : "",
      "Address" : "Gasthuisstraat 36, 8970 Poperinge",
      "Lat" : 50.8558831,
      "Long" : 2.723429
    },
    {
      "Stad/gemeente" : "Poperinge",
      "Programma" : "Urbain full ",
      "Handelszaak" : "Bar Petit Comite",
      "Straat + huisnummer" : "Veurnestraat 6",
      "postcode" : 8970,
      "stad" : "Poperinge",
      "type" : "",
      "Address" : "Veurnestraat 6, 8970 Poperinge",
      "Lat" : 50.8561122,
      "Long" : 2.7265142
    },
    {
      "Stad/gemeente" : "Poperinge",
      "Programma" : "Urbain full ",
      "Handelszaak" : "Belflor",
      "Straat + huisnummer" : "Zuidlaan 3 A",
      "postcode" : 8970,
      "stad" : "Poperinge",
      "type" : "",
      "Address" : "Zuidlaan 3 A, 8970 Poperinge",
      "Lat" : 50.8439796,
      "Long" : 2.7199981
    },
    {
      "Stad/gemeente" : "Poperinge",
      "Programma" : "Urbain full ",
      "Handelszaak" : "Belle A Mie bvba",
      "Straat + huisnummer" : "Ieperstraat 46",
      "postcode" : 8970,
      "stad" : "Poperinge",
      "type" : "",
      "Address" : "Ieperstraat 46, 8970 Poperinge",
      "Lat" : 50.8542453,
      "Long" : 2.7291882
    },
    {
      "Stad/gemeente" : "Poperinge",
      "Programma" : "Urbain full ",
      "Handelszaak" : "Belle Histoire",
      "Straat + huisnummer" : "Casselstraat 62",
      "postcode" : 8970,
      "stad" : "Poperinge",
      "type" : "",
      "Address" : "Casselstraat 62, 8970 Poperinge",
      "Lat" : 50.8529744,
      "Long" : 2.7217087
    },
    {
      "Stad/gemeente" : "Poperinge",
      "Programma" : "Urbain full ",
      "Handelszaak" : "Body fit",
      "Straat + huisnummer" : "Nieuwstraat 11",
      "postcode" : 8970,
      "stad" : "Poperinge",
      "type" : "",
      "Address" : "Nieuwstraat 11, 8970 Poperinge",
      "Lat" : 50.854088,
      "Long" : 2.7349762
    },
    {
      "Stad/gemeente" : "Poperinge",
      "Programma" : "Urbain full ",
      "Handelszaak" : "Boekhandel Merlevede",
      "Straat + huisnummer" : "Gasthuisstraat 62",
      "postcode" : 8970,
      "stad" : "Poperinge",
      "type" : "",
      "Address" : "Gasthuisstraat 62, 8970 Poperinge",
      "Lat" : 50.8550713,
      "Long" : 2.7225854
    },
    {
      "Stad/gemeente" : "Poperinge",
      "Programma" : "Urbain full ",
      "Handelszaak" : "Boetiek ARkiZ",
      "Straat + huisnummer" : "Iepersestraat 22",
      "postcode" : 8970,
      "stad" : "Poperinge",
      "type" : "",
      "Address" : "Iepersestraat 22, 8970 Poperinge",
      "Lat" : 50.8550372,
      "Long" : 2.7525004
    },
    {
      "Stad/gemeente" : "Poperinge",
      "Programma" : "Urbain full ",
      "Handelszaak" : "Boligna",
      "Straat + huisnummer" : "Casselstraat 41",
      "postcode" : 8970,
      "stad" : "Poperinge",
      "type" : "",
      "Address" : "Casselstraat 41, 8970 Poperinge",
      "Lat" : 50.8526782,
      "Long" : 2.7212553
    },
    {
      "Stad/gemeente" : "Poperinge",
      "Programma" : "Urbain full ",
      "Handelszaak" : "Books & Things",
      "Straat + huisnummer" : "Ieperstraat 43",
      "postcode" : 8970,
      "stad" : "Poperinge",
      "type" : "",
      "Address" : "Ieperstraat 43, 8970 Poperinge",
      "Lat" : 50.8541675,
      "Long" : 2.728973
    },
    {
      "Stad/gemeente" : "Poperinge",
      "Programma" : "Urbain full ",
      "Handelszaak" : "Brutus Mannenmode",
      "Straat + huisnummer" : "Ieperstraat 44",
      "postcode" : 8970,
      "stad" : "Poperinge",
      "type" : "",
      "Address" : "Ieperstraat 44, 8978 Poperinge",
      "Lat" : 50.8543145,
      "Long" : 2.7289925
    },
    {
      "Stad/gemeente" : "Poperinge",
      "Programma" : "Urbain full ",
      "Handelszaak" : "Café L'esperance",
      "Straat + huisnummer" : "Grote Markt 17",
      "postcode" : 8970,
      "stad" : "Poperinge",
      "type" : "",
      "Address" : "Grote Markt 17, 8970 Poperinge",
      "Lat" : 50.8558119,
      "Long" : 2.7257544
    },
    {
      "Stad/gemeente" : "Poperinge",
      "Programma" : "Urbain full ",
      "Handelszaak" : "Chez le voisin",
      "Straat + huisnummer" : "Houtkerkestraat 26",
      "postcode" : 8978,
      "stad" : "Poperinge",
      "type" : "",
      "Address" : "Houtkerkestraat 26, 8970 Poperinge",
      "Lat" : 50.8747763,
      "Long" : 2.6070328
    },
    {
      "Stad/gemeente" : "Poperinge",
      "Programma" : "Urbain full ",
      "Handelszaak" : "D'abeelestatie",
      "Straat + huisnummer" : "Abelestationsstraat 34",
      "postcode" : 8970,
      "stad" : "Poperinge",
      "type" : "",
      "Address" : "Abelestationsstraat 34, 8970 Poperinge",
      "Lat" : 50.8180541,
      "Long" : 2.6753953
    },
    {
      "Stad/gemeente" : "Poperinge",
      "Programma" : "Urbain full ",
      "Handelszaak" : "Danneels",
      "Straat + huisnummer" : "Boeschepestraat 33",
      "postcode" : 8970,
      "stad" : "Poperinge",
      "type" : "",
      "Address" : "Boeschepestraat 33, 8970 Poperinge",
      "Lat" : 50.8521097,
      "Long" : 2.7232018
    },
    {
      "Stad/gemeente" : "Poperinge",
      "Programma" : "Urbain full ",
      "Handelszaak" : "De Balans@Home",
      "Straat + huisnummer" : "Abelestationsplein 27",
      "postcode" : 8970,
      "stad" : "Poperinge",
      "type" : "",
      "Address" : "Abelestationsplein 27, 8970 Poperinge",
      "Lat" : 50.8186974,
      "Long" : 2.6791496
    },
    {
      "Stad/gemeente" : "Poperinge",
      "Programma" : "Urbain full ",
      "Handelszaak" : "De Fruithoek",
      "Straat + huisnummer" : "Europalaan 2",
      "postcode" : 8970,
      "stad" : "Poperinge",
      "type" : "",
      "Address" : "Europalaan 2, 8970 Poperinge",
      "Lat" : 50.8543832,
      "Long" : 2.7454087
    },
    {
      "Stad/gemeente" : "Poperinge",
      "Programma" : "Urbain full ",
      "Handelszaak" : "De Strooyen Hen",
      "Straat + huisnummer" : "Watouseweg 54",
      "postcode" : 8970,
      "stad" : "Poperinge",
      "type" : "",
      "Address" : "Watouseweg 54, 8970 Poperinge",
      "Lat" : 50.85968150000001,
      "Long" : 2.6667584
    },
    {
      "Stad/gemeente" : "Poperinge",
      "Programma" : "Urbain full ",
      "Handelszaak" : "Desomer-Plancke",
      "Straat + huisnummer" : "Europalaan 30",
      "postcode" : 8970,
      "stad" : "Poperinge",
      "type" : "",
      "Address" : "Europalaan 30, 8972 Poperinge",
      "Lat" : 50.8509624,
      "Long" : 2.7428062
    },
    {
      "Stad/gemeente" : "Poperinge",
      "Programma" : "Urbain full ",
      "Handelszaak" : "Drafab Green",
      "Straat + huisnummer" : "Beneluxlaan 7",
      "postcode" : 8970,
      "stad" : "Poperinge",
      "type" : "",
      "Address" : "Beneluxlaan 7, 8970 Poperinge",
      "Lat" : 50.8511572,
      "Long" : 2.7450801
    },
    {
      "Stad/gemeente" : "Poperinge",
      "Programma" : "Urbain full ",
      "Handelszaak" : "Elektro Cappoen",
      "Straat + huisnummer" : "Prof. Rubbrechtstraat 12",
      "postcode" : 8972,
      "stad" : "Poperinge",
      "type" : "",
      "Address" : "Prof. Rubbrechtstraat 12, 8970 Poperinge",
      "Lat" : 50.9189222,
      "Long" : 2.6248425
    },
    {
      "Stad/gemeente" : "Poperinge",
      "Programma" : "Urbain full ",
      "Handelszaak" : "Eric Hairteam",
      "Straat + huisnummer" : "Casselstraat 35",
      "postcode" : 8970,
      "stad" : "Poperinge",
      "type" : "",
      "Address" : "Casselstraat 35, 8970 Poperinge",
      "Lat" : 50.85329340000001,
      "Long" : 2.7216809
    },
    {
      "Stad/gemeente" : "Poperinge",
      "Programma" : "Urbain full ",
      "Handelszaak" : "Esthetiek Pedra",
      "Straat + huisnummer" : "Casselstraat 34",
      "postcode" : 8970,
      "stad" : "Poperinge",
      "type" : "",
      "Address" : "Casselstraat 34, 8970 Poperinge",
      "Lat" : 50.8538441,
      "Long" : 2.7221936
    },
    {
      "Stad/gemeente" : "Poperinge",
      "Programma" : "Urbain full ",
      "Handelszaak" : "Femina",
      "Straat + huisnummer" : "Gasthuisstraat 45",
      "postcode" : 8970,
      "stad" : "Poperinge",
      "type" : "",
      "Address" : "Gasthuisstraat 45, 8970 Poperinge",
      "Lat" : 50.8559144,
      "Long" : 2.723206
    },
    {
      "Stad/gemeente" : "Poperinge",
      "Programma" : "Urbain full ",
      "Handelszaak" : "Flou's",
      "Straat + huisnummer" : "Ieperstraat 169",
      "postcode" : 8970,
      "stad" : "Poperinge",
      "type" : "",
      "Address" : "Ieperstraat 169, 8970 Poperinge",
      "Lat" : 50.8548492,
      "Long" : 2.7362635
    },
    {
      "Stad/gemeente" : "Poperinge",
      "Programma" : "Urbain full ",
      "Handelszaak" : "Fresh Cleaning",
      "Straat + huisnummer" : "Proones 77",
      "postcode" : 8970,
      "stad" : "Poperinge",
      "type" : "",
      "Address" : "Proones 77, 8978 Poperinge",
      "Lat" : 50.851496,
      "Long" : 2.7141706
    },
    {
      "Stad/gemeente" : "Poperinge",
      "Programma" : "Urbain full ",
      "Handelszaak" : "Garage Duran",
      "Straat + huisnummer" : "Reningelstseweg 11",
      "postcode" : 8970,
      "stad" : "Poperinge",
      "type" : "",
      "Address" : "Reningelstseweg 11, 8970 Poperinge",
      "Lat" : 50.8431664,
      "Long" : 2.7377283
    },
    {
      "Stad/gemeente" : "Poperinge",
      "Programma" : "Urbain full ",
      "Handelszaak" : "Grains d'amour",
      "Straat + huisnummer" : "Kleine Markt 22",
      "postcode" : 8978,
      "stad" : "Poperinge",
      "type" : "",
      "Address" : "Kleine Markt 22, 8970 Poperinge",
      "Lat" : 50.8603738,
      "Long" : 2.6198284
    },
    {
      "Stad/gemeente" : "Poperinge",
      "Programma" : "Urbain full ",
      "Handelszaak" : "GSI",
      "Straat + huisnummer" : "Europalaan 2",
      "postcode" : 8970,
      "stad" : "Poperinge",
      "type" : "",
      "Address" : "Europalaan 2, 8970 Poperinge",
      "Lat" : 50.8543832,
      "Long" : 2.7454087
    },
    {
      "Stad/gemeente" : "Poperinge",
      "Programma" : "Urbain full ",
      "Handelszaak" : "Hedwige Vandermarliere",
      "Straat + huisnummer" : "Toc H-Straat 30",
      "postcode" : 8970,
      "stad" : "Poperinge",
      "type" : "",
      "Address" : "Toc H-Straat 30, 8970 Poperinge",
      "Lat" : 50.85081,
      "Long" : 2.7313978
    },
    {
      "Stad/gemeente" : "Poperinge",
      "Programma" : "Urbain full ",
      "Handelszaak" : "Het Woonhuis",
      "Straat + huisnummer" : "Ieperstraat 75",
      "postcode" : 8970,
      "stad" : "Poperinge",
      "type" : "",
      "Address" : "Ieperstraat 75, 8970 Poperinge",
      "Lat" : 50.8543292,
      "Long" : 2.7309207
    },
    {
      "Stad/gemeente" : "Poperinge",
      "Programma" : "Urbain full ",
      "Handelszaak" : "Hoorcentrum 'T Oorhuis Poperinge",
      "Straat + huisnummer" : "Ieperstraat 48",
      "postcode" : 8970,
      "stad" : "Poperinge",
      "type" : "",
      "Address" : "Ieperstraat 48, 8970 Poperinge",
      "Lat" : 50.8542354,
      "Long" : 2.7293266
    },
    {
      "Stad/gemeente" : "Poperinge",
      "Programma" : "Urbain full ",
      "Handelszaak" : "Hoppetravel",
      "Straat + huisnummer" : "Ieperstraat 118",
      "postcode" : 8970,
      "stad" : "Poperinge",
      "type" : "",
      "Address" : "Ieperstraat 118, 8970 Poperinge",
      "Lat" : 50.8546236,
      "Long" : 2.7330042
    },
    {
      "Stad/gemeente" : "Poperinge",
      "Programma" : "Urbain full ",
      "Handelszaak" : "Instituut Carine De Meulenaere",
      "Straat + huisnummer" : "Veurnestraat 60",
      "postcode" : 8970,
      "stad" : "Poperinge",
      "type" : "",
      "Address" : "Veurnestraat 60, 8970 Poperinge",
      "Lat" : 50.8576961,
      "Long" : 2.7277811
    },
    {
      "Stad/gemeente" : "Poperinge",
      "Programma" : "Urbain full ",
      "Handelszaak" : "Instituut Hélène",
      "Straat + huisnummer" : "Krombeekseweg  3a",
      "postcode" : 8970,
      "stad" : "Poperinge",
      "type" : "",
      "Address" : "Krombeekseweg  3a, 8972 Poperinge",
      "Lat" : 50.8615256,
      "Long" : 2.7193898
    },
    {
      "Stad/gemeente" : "Poperinge",
      "Programma" : "Urbain full ",
      "Handelszaak" : "It's Bling-Bling",
      "Straat + huisnummer" : "Gasthuisstraat 12",
      "postcode" : 8970,
      "stad" : "Poperinge",
      "type" : "",
      "Address" : "Gasthuisstraat 12, 8970 Poperinge",
      "Lat" : 50.8558977,
      "Long" : 2.7246102
    },
    {
      "Stad/gemeente" : "Poperinge",
      "Programma" : "Urbain full ",
      "Handelszaak" : "Jan Van Bruwaene Services",
      "Straat + huisnummer" : "Roggestraat 12",
      "postcode" : 8972,
      "stad" : "Poperinge",
      "type" : "",
      "Address" : "Roggestraat 12, 8970 Poperinge",
      "Lat" : 50.9178082,
      "Long" : 2.6877473
    },
    {
      "Stad/gemeente" : "Poperinge",
      "Programma" : "Urbain full ",
      "Handelszaak" : "Jolie",
      "Straat + huisnummer" : "Professor Dewulfstraat 3",
      "postcode" : 8970,
      "stad" : "Poperinge",
      "type" : "",
      "Address" : "Professor Dewulfstraat 3, 8970 Poperinge",
      "Lat" : 50.8539865,
      "Long" : 2.7293563
    },
    {
      "Stad/gemeente" : "Poperinge",
      "Programma" : "Urbain full ",
      "Handelszaak" : "Junior Line",
      "Straat + huisnummer" : "Ieperstraat 28",
      "postcode" : 8970,
      "stad" : "Poperinge",
      "type" : "",
      "Address" : "Ieperstraat 28, 8972 Poperinge",
      "Lat" : 50.8545733,
      "Long" : 2.7281402
    },
    {
      "Stad/gemeente" : "Poperinge",
      "Programma" : "Urbain full ",
      "Handelszaak" : "Juwelen & Fashion Nevejan",
      "Straat + huisnummer" : "Ieperstraat 3",
      "postcode" : 8970,
      "stad" : "Poperinge",
      "type" : "",
      "Address" : "Ieperstraat 3, 8970 Poperinge",
      "Lat" : 50.85515359999999,
      "Long" : 2.7272282
    },
    {
      "Stad/gemeente" : "Poperinge",
      "Programma" : "Urbain full ",
      "Handelszaak" : "Kapsalon Carré",
      "Straat + huisnummer" : "Bankelindeweg 3",
      "postcode" : 8972,
      "stad" : "Poperinge",
      "type" : "",
      "Address" : "Bankelindeweg 3, 8970 Poperinge",
      "Lat" : 50.8823541,
      "Long" : 2.7013671
    },
    {
      "Stad/gemeente" : "Poperinge",
      "Programma" : "Urbain full ",
      "Handelszaak" : "Keurslager Ignace en Liliane",
      "Straat + huisnummer" : "Ieperstraat 179",
      "postcode" : 8970,
      "stad" : "Poperinge",
      "type" : "",
      "Address" : "Ieperstraat 179, 8970 Poperinge",
      "Lat" : 50.8549174,
      "Long" : 2.7372639
    },
    {
      "Stad/gemeente" : "Poperinge",
      "Programma" : "Urbain full ",
      "Handelszaak" : "Kid'z Fashion",
      "Straat + huisnummer" : "Ieperstraat 21",
      "postcode" : 8970,
      "stad" : "Poperinge",
      "type" : "",
      "Address" : "Ieperstraat 21, 8970 Poperinge",
      "Lat" : 50.85457539999999,
      "Long" : 2.7278802
    },
    {
      "Stad/gemeente" : "Poperinge",
      "Programma" : "Urbain full ",
      "Handelszaak" : "Kiki Women's Wear",
      "Straat + huisnummer" : "Gasthuisstraat 33",
      "postcode" : 8970,
      "stad" : "Poperinge",
      "type" : "",
      "Address" : "Gasthuisstraat 33, 8970 Poperinge",
      "Lat" : 50.8560392,
      "Long" : 2.7238207
    },
    {
      "Stad/gemeente" : "Poperinge",
      "Programma" : "Urbain full ",
      "Handelszaak" : "Kreatos Poperinge",
      "Straat + huisnummer" : "Ieperstraat 64",
      "postcode" : 8970,
      "stad" : "Poperinge",
      "type" : "",
      "Address" : "Ieperstraat 64, 8970 Poperinge",
      "Lat" : 50.8542955,
      "Long" : 2.7301525
    },
    {
      "Stad/gemeente" : "Poperinge",
      "Programma" : "Urbain full ",
      "Handelszaak" : "Kwaliteitsslagerij Frederik Caroline",
      "Straat + huisnummer" : "Casselstraat 40",
      "postcode" : 8970,
      "stad" : "Poperinge",
      "type" : "",
      "Address" : "Casselstraat 40, 8970 Poperinge",
      "Lat" : 50.85368159999999,
      "Long" : 2.7221112
    },
    {
      "Stad/gemeente" : "Poperinge",
      "Programma" : "Urbain full ",
      "Handelszaak" : "L'essentielle",
      "Straat + huisnummer" : "Casselstraat 30",
      "postcode" : 8970,
      "stad" : "Poperinge",
      "type" : "",
      "Address" : "Casselstraat 30, 8970 Poperinge",
      "Lat" : 50.8540023,
      "Long" : 2.7223441
    },
    {
      "Stad/gemeente" : "Poperinge",
      "Programma" : "Urbain full ",
      "Handelszaak" : "Leonidas Poperinge",
      "Straat + huisnummer" : "Gasthuisstraat 79",
      "postcode" : 8970,
      "stad" : "Poperinge",
      "type" : "",
      "Address" : "Gasthuisstraat 79, 8970 Poperinge",
      "Lat" : 50.85490979999999,
      "Long" : 2.7224731
    },
    {
      "Stad/gemeente" : "Poperinge",
      "Programma" : "Urbain full ",
      "Handelszaak" : "Les Copains",
      "Straat + huisnummer" : "Vlamingstraat 3",
      "postcode" : 8970,
      "stad" : "Poperinge",
      "type" : "",
      "Address" : "Vlamingstraat 3, 8970 Poperinge",
      "Lat" : 50.855777,
      "Long" : 2.725444
    },
    {
      "Stad/gemeente" : "Poperinge",
      "Programma" : "Urbain full ",
      "Handelszaak" : "Lumizo",
      "Straat + huisnummer" : "Gasthuisstraat 46 A1",
      "postcode" : 8970,
      "stad" : "Poperinge",
      "type" : "",
      "Address" : "Gasthuisstraat 46 A1, 8978 Poperinge",
      "Lat" : 50.8555577,
      "Long" : 2.7229509
    },
    {
      "Stad/gemeente" : "Poperinge",
      "Programma" : "Urbain full ",
      "Handelszaak" : "Maerten",
      "Straat + huisnummer" : "Beneluxlaan 10",
      "postcode" : 8970,
      "stad" : "Poperinge",
      "type" : "",
      "Address" : "Beneluxlaan 10, 8970 Poperinge",
      "Lat" : 50.8495291,
      "Long" : 2.7472786
    },
    {
      "Stad/gemeente" : "Poperinge",
      "Programma" : "Urbain full ",
      "Handelszaak" : "Maison Leonie",
      "Straat + huisnummer" : "Calliannesweg 9",
      "postcode" : 8978,
      "stad" : "Poperinge Watou",
      "type" : "",
      "Address" : "Calliannesweg 9, 8970 Poperinge Watou",
      "Lat" : "",
      "Long" : ""
    },
    {
      "Stad/gemeente" : "Poperinge",
      "Programma" : "Urbain full ",
      "Handelszaak" : "Manoir Ogygia",
      "Straat + huisnummer" : "Veurnestraat 108",
      "postcode" : 8970,
      "stad" : "Poperinge",
      "type" : "",
      "Address" : "Veurnestraat 108, 8970 Poperinge",
      "Lat" : 50.8591297,
      "Long" : 2.7294176
    },
    {
      "Stad/gemeente" : "Poperinge",
      "Programma" : "Urbain full ",
      "Handelszaak" : "Médoc Beauty",
      "Straat + huisnummer" : "Professor Dewulfstraat 7",
      "postcode" : 8970,
      "stad" : "Poperinge",
      "type" : "",
      "Address" : "Professor Dewulfstraat 7, 8978 Poperinge",
      "Lat" : 50.85390169999999,
      "Long" : 2.7296642
    },
    {
      "Stad/gemeente" : "Poperinge",
      "Programma" : "Urbain full ",
      "Handelszaak" : "Megalec",
      "Straat + huisnummer" : "Frankrijklaan 1",
      "postcode" : 8970,
      "stad" : "Poperinge",
      "type" : "",
      "Address" : "Frankrijklaan 1, 8970 Poperinge",
      "Lat" : 50.8493983,
      "Long" : 2.7411208
    },
    {
      "Stad/gemeente" : "Poperinge",
      "Programma" : "Urbain full ",
      "Handelszaak" : "Mi Sento",
      "Straat + huisnummer" : "Douvieweg 85",
      "postcode" : 8978,
      "stad" : "Poperinge Watou",
      "type" : "",
      "Address" : "Douvieweg 85, 8970 Poperinge Watou",
      "Lat" : 50.8618688,
      "Long" : 2.6526555
    },
    {
      "Stad/gemeente" : "Poperinge",
      "Programma" : "Urbain full ",
      "Handelszaak" : "Nancy en Ko",
      "Straat + huisnummer" : "Paardenmarkt 15",
      "postcode" : 8970,
      "stad" : "Poperinge",
      "type" : "",
      "Address" : "Paardenmarkt 15, 8970 Poperinge",
      "Lat" : 50.8553759,
      "Long" : 2.729155
    },
    {
      "Stad/gemeente" : "Poperinge",
      "Programma" : "Urbain full ",
      "Handelszaak" : "Natuurcentrum Veronique & Luc",
      "Straat + huisnummer" : "Gasthuisstraat 60",
      "postcode" : 8970,
      "stad" : "Poperinge",
      "type" : "",
      "Address" : "Gasthuisstraat 60, 8970 Poperinge",
      "Lat" : 50.8551499,
      "Long" : 2.7226036
    },
    {
      "Stad/gemeente" : "Poperinge",
      "Programma" : "Urbain full ",
      "Handelszaak" : "New Dynasty",
      "Straat + huisnummer" : "Casselstraat 1",
      "postcode" : 8970,
      "stad" : "Poperinge",
      "type" : "",
      "Address" : "Casselstraat 1, 8970 Poperinge",
      "Lat" : 50.8545504,
      "Long" : 2.722307
    },
    {
      "Stad/gemeente" : "Poperinge",
      "Programma" : "Urbain full ",
      "Handelszaak" : "Optiek Dejonghe",
      "Straat + huisnummer" : "Casselstraat 38",
      "postcode" : 8970,
      "stad" : "Poperinge",
      "type" : "",
      "Address" : "Casselstraat 38, 8970 Poperinge",
      "Lat" : 50.853722,
      "Long" : 2.722253
    },
    {
      "Stad/gemeente" : "Poperinge",
      "Programma" : "Urbain full ",
      "Handelszaak" : "Optiek Lobelle - Ryon",
      "Straat + huisnummer" : "Burgemeester Bertenplein 14",
      "postcode" : 8970,
      "stad" : "Poperinge",
      "type" : "",
      "Address" : "Burgemeester Bertenplein 14, 8970 Poperinge",
      "Lat" : 50.8543386,
      "Long" : 2.725394
    },
    {
      "Stad/gemeente" : "Poperinge",
      "Programma" : "Urbain full ",
      "Handelszaak" : "Outside Travel",
      "Straat + huisnummer" : "Gasthuisstraat 28",
      "postcode" : 8970,
      "stad" : "Poperinge",
      "type" : "",
      "Address" : "Gasthuisstraat 28, 8970 Poperinge",
      "Lat" : 50.8559673,
      "Long" : 2.7237058
    },
    {
      "Stad/gemeente" : "Poperinge",
      "Programma" : "Urbain full ",
      "Handelszaak" : "Page Computers",
      "Straat + huisnummer" : "Casselstraat 212",
      "postcode" : 8970,
      "stad" : "Poperinge",
      "type" : "",
      "Address" : "Casselstraat 212, 8970 Poperinge",
      "Lat" : 50.8484524,
      "Long" : 2.7180326
    },
    {
      "Stad/gemeente" : "Poperinge",
      "Programma" : "Urbain full ",
      "Handelszaak" : "Pane Casa",
      "Straat + huisnummer" : "Ieperstraat 41",
      "postcode" : 8970,
      "stad" : "Poperinge",
      "type" : "",
      "Address" : "Ieperstraat 41, 8970 Poperinge",
      "Lat" : 50.85425,
      "Long" : 2.7288137
    },
    {
      "Stad/gemeente" : "Poperinge",
      "Programma" : "Urbain full ",
      "Handelszaak" : "Passage",
      "Straat + huisnummer" : "Veurnestraat 11",
      "postcode" : 8970,
      "stad" : "Poperinge",
      "type" : "",
      "Address" : "Veurnestraat 11, 8970 Poperinge",
      "Lat" : 50.8563402,
      "Long" : 2.7266193
    },
    {
      "Stad/gemeente" : "Poperinge",
      "Programma" : "Urbain full ",
      "Handelszaak" : "Pastda",
      "Straat + huisnummer" : "Ieperstraat 50",
      "postcode" : 8970,
      "stad" : "Poperinge",
      "type" : "",
      "Address" : "Ieperstraat 50, 8970 Poperinge",
      "Lat" : 50.8541687,
      "Long" : 2.729443
    },
    {
      "Stad/gemeente" : "Poperinge",
      "Programma" : "Urbain full ",
      "Handelszaak" : "Pearle Opticiens Poperinge",
      "Straat + huisnummer" : "Ieperstraat 10",
      "postcode" : 8970,
      "stad" : "Poperinge",
      "type" : "",
      "Address" : "Ieperstraat 10, 8970 Poperinge",
      "Lat" : 50.85493779999999,
      "Long" : 2.7276384
    },
    {
      "Stad/gemeente" : "Poperinge",
      "Programma" : "Urbain full ",
      "Handelszaak" : "Pep-up Vintage Shop",
      "Straat + huisnummer" : "Gasthuisstraat 49",
      "postcode" : 8970,
      "stad" : "Poperinge",
      "type" : "",
      "Address" : "Gasthuisstraat 49, 8970 Poperinge",
      "Lat" : 50.8557455,
      "Long" : 2.7230212
    },
    {
      "Stad/gemeente" : "Poperinge",
      "Programma" : "Urbain full ",
      "Handelszaak" : "Plancke Interieur",
      "Straat + huisnummer" : "Paardenmarkt 10c",
      "postcode" : 8970,
      "stad" : "Poperinge",
      "type" : "",
      "Address" : "Paardenmarkt 10c, 8970 Poperinge",
      "Lat" : 50.85543269999999,
      "Long" : 2.7292761
    },
    {
      "Stad/gemeente" : "Poperinge",
      "Programma" : "Urbain full ",
      "Handelszaak" : "Restaurant Pegasus",
      "Straat + huisnummer" : "Guido Gezellestraat 7",
      "postcode" : 8970,
      "stad" : "Poperinge",
      "type" : "",
      "Address" : "Guido Gezellestraat 7, 8970 Poperinge",
      "Lat" : 50.8556592,
      "Long" : 2.7283192
    },
    {
      "Stad/gemeente" : "Poperinge",
      "Programma" : "Urbain full ",
      "Handelszaak" : "Romanhof",
      "Straat + huisnummer" : "Duinkerkestraat 37",
      "postcode" : 8970,
      "stad" : "Poperinge",
      "type" : "",
      "Address" : "Duinkerkestraat 37, 8970 Poperinge",
      "Lat" : 50.8550638,
      "Long" : 2.720202
    },
    {
      "Stad/gemeente" : "Poperinge",
      "Programma" : "Urbain full ",
      "Handelszaak" : "Schoen-Sportcenter",
      "Straat + huisnummer" : "Peperstraat 2",
      "postcode" : 8970,
      "stad" : "Poperinge",
      "type" : "",
      "Address" : "Peperstraat 2, 8970 Poperinge",
      "Lat" : 50.85391930000001,
      "Long" : 2.7227118
    },
    {
      "Stad/gemeente" : "Poperinge",
      "Programma" : "Urbain full ",
      "Handelszaak" : "Schoenen Valencia",
      "Straat + huisnummer" : "Casselstraat 45",
      "postcode" : 8970,
      "stad" : "Poperinge",
      "type" : "",
      "Address" : "Casselstraat 45, 8978 Poperinge",
      "Lat" : 50.8529129,
      "Long" : 2.7213696
    },
    {
      "Stad/gemeente" : "Poperinge",
      "Programma" : "Urbain full ",
      "Handelszaak" : "Slagerij Leys-Orbie",
      "Straat + huisnummer" : "Pottestraat 43",
      "postcode" : 8970,
      "stad" : "Poperinge",
      "type" : "",
      "Address" : "Pottestraat 43, 8970 Poperinge",
      "Lat" : 50.8572906,
      "Long" : 2.7224655
    },
    {
      "Stad/gemeente" : "Poperinge",
      "Programma" : "Urbain full ",
      "Handelszaak" : "Smaan & Patchouli's Atelier",
      "Straat + huisnummer" : "Steenvoordestraat 92",
      "postcode" : 8978,
      "stad" : "Poperinge",
      "type" : "",
      "Address" : "Steenvoordestraat 92, 8970 Poperinge",
      "Lat" : 50.8541243,
      "Long" : 2.6201587
    },
    {
      "Stad/gemeente" : "Poperinge",
      "Programma" : "Urbain full ",
      "Handelszaak" : "Spar Elslander",
      "Straat + huisnummer" : "Casselstraat 59",
      "postcode" : 8970,
      "stad" : "Poperinge",
      "type" : "",
      "Address" : "Casselstraat 59, 8970 Poperinge",
      "Lat" : 50.8524077,
      "Long" : 2.7210224
    },
    {
      "Stad/gemeente" : "Poperinge",
      "Programma" : "Urbain full ",
      "Handelszaak" : "Supermarkten De Rynck",
      "Straat + huisnummer" : "Gasthuisstraat 1",
      "postcode" : 8970,
      "stad" : "Poperinge",
      "type" : "",
      "Address" : "Gasthuisstraat 1, 8970 Poperinge",
      "Lat" : 50.8558873,
      "Long" : 2.7250842
    },
    {
      "Stad/gemeente" : "Poperinge",
      "Programma" : "Urbain full ",
      "Handelszaak" : "Tende by Inhuis",
      "Straat + huisnummer" : "Ieperstraat 2",
      "postcode" : 8970,
      "stad" : "Poperinge",
      "type" : "",
      "Address" : "Ieperstraat 2, 8970 Poperinge",
      "Lat" : 50.8551423,
      "Long" : 2.7274353
    },
    {
      "Stad/gemeente" : "Poperinge",
      "Programma" : "Urbain full ",
      "Handelszaak" : "Textiel Dejaegher",
      "Straat + huisnummer" : "Ieperstraat 56",
      "postcode" : 8970,
      "stad" : "Poperinge",
      "type" : "",
      "Address" : "Ieperstraat 56, 8970 Poperinge",
      "Lat" : 50.8543011,
      "Long" : 2.72965
    },
    {
      "Stad/gemeente" : "Poperinge",
      "Programma" : "Urbain full ",
      "Handelszaak" : "The Old Fiddler",
      "Straat + huisnummer" : "Veurnestraat 9",
      "postcode" : 8970,
      "stad" : "Poperinge",
      "type" : "",
      "Address" : "Veurnestraat 9, 8970 Poperinge",
      "Lat" : 50.8562462,
      "Long" : 2.7267234
    },
    {
      "Stad/gemeente" : "Poperinge",
      "Programma" : "Urbain full ",
      "Handelszaak" : "Top Thuiszorg",
      "Straat + huisnummer" : "Grote Markt 23",
      "postcode" : 8970,
      "stad" : "Poperinge",
      "type" : "",
      "Address" : "Grote Markt 23, 8970 Poperinge",
      "Lat" : 50.8558782,
      "Long" : 2.7260043
    },
    {
      "Stad/gemeente" : "Poperinge",
      "Programma" : "Urbain full ",
      "Handelszaak" : "Total Busschaert",
      "Straat + huisnummer" : "Westouterseweg 1",
      "postcode" : 8970,
      "stad" : "Poperinge",
      "type" : "",
      "Address" : "Westouterseweg 1, 8970 Poperinge",
      "Lat" : 50.84427489999999,
      "Long" : 2.7277646
    },
    {
      "Stad/gemeente" : "Poperinge",
      "Programma" : "Urbain full ",
      "Handelszaak" : "Tuincentrum Debergh - Buseyne",
      "Straat + huisnummer" : "Provenseweg 2",
      "postcode" : 8970,
      "stad" : "Poperinge",
      "type" : "",
      "Address" : "Provenseweg 2, 8978 Poperinge",
      "Lat" : 50.8567081,
      "Long" : 2.7076816
    },
    {
      "Stad/gemeente" : "Poperinge",
      "Programma" : "Urbain full ",
      "Handelszaak" : "Vandenberghe Verf",
      "Straat + huisnummer" : "Ieperstraat 137",
      "postcode" : 8970,
      "stad" : "Poperinge",
      "type" : "",
      "Address" : "Ieperstraat 137, 8970 Poperinge",
      "Lat" : 50.8546892,
      "Long" : 2.7336349
    },
    {
      "Stad/gemeente" : "Poperinge",
      "Programma" : "Urbain full ",
      "Handelszaak" : "Wethuys-Boltra",
      "Straat + huisnummer" : "Watouplein 2",
      "postcode" : 8978,
      "stad" : "Poperinge",
      "type" : "",
      "Address" : "Watouplein 2, 8970 Poperinge",
      "Lat" : 50.8586657,
      "Long" : 2.6206388
    },
    {
      "Stad/gemeente" : "Poperinge",
      "Programma" : "Urbain full ",
      "Handelszaak" : "White House Vastgoed",
      "Straat + huisnummer" : "Ieperstraat 19",
      "postcode" : 8970,
      "stad" : "Poperinge",
      "type" : "",
      "Address" : "Ieperstraat 19, 3300 Poperinge",
      "Lat" : 50.85458089999999,
      "Long" : 2.727875
    },
    {
      "Stad/gemeente" : "Poperinge",
      "Programma" : "Urbain full ",
      "Handelszaak" : "Zakenkantoor Gouwy & Partners",
      "Straat + huisnummer" : "Burgemeester Bertenplein 23",
      "postcode" : 8970,
      "stad" : "Poperinge",
      "type" : "",
      "Address" : "Burgemeester Bertenplein 23, 3300 Poperinge",
      "Lat" : 50.8539347,
      "Long" : 2.7248365
    },
    {
      "Stad/gemeente" : "Tienen",
      "Programma" : "Urbain full ",
      "Handelszaak" : "Alpha Hotel",
      "Straat + huisnummer" : "Leuvensestraat 95-97",
      "postcode" : 3300,
      "stad" : "Tienen",
      "type" : "",
      "Address" : "Leuvensestraat 95-97, 3300 Tienen",
      "Lat" : 50.8098038,
      "Long" : 4.932155
    },
    {
      "Stad/gemeente" : "Tienen",
      "Programma" : "Urbain full ",
      "Handelszaak" : "Ankerman",
      "Straat + huisnummer" : "Hennemarkt 11",
      "postcode" : 3300,
      "stad" : "Tienen",
      "type" : "",
      "Address" : "Hennemarkt 11, 3300 Tienen",
      "Lat" : 50.8062877,
      "Long" : 4.940354699999999
    },
    {
      "Stad/gemeente" : "Tienen",
      "Programma" : "Urbain full ",
      "Handelszaak" : "Arly",
      "Straat + huisnummer" : "Nieuwstraat 30",
      "postcode" : 3300,
      "stad" : "Tienen",
      "type" : "",
      "Address" : "Nieuwstraat 30, 3300 Tienen",
      "Lat" : 50.8067918,
      "Long" : 4.939248399999999
    },
    {
      "Stad/gemeente" : "Tienen",
      "Programma" : "Urbain full ",
      "Handelszaak" : "Babycenter Tienen",
      "Straat + huisnummer" : "Kalkmarkt 7",
      "postcode" : 3300,
      "stad" : "Tienen",
      "type" : "",
      "Address" : "Kalkmarkt 7, 3300 Tienen",
      "Lat" : 50.8074866,
      "Long" : 4.938369499999999
    },
    {
      "Stad/gemeente" : "Tienen",
      "Programma" : "Urbain full ",
      "Handelszaak" : "Boetiek Envie",
      "Straat + huisnummer" : "Leuvensestraat 52",
      "postcode" : 3300,
      "stad" : "Tienen",
      "type" : "",
      "Address" : "Leuvensestraat 52, 3300 Tienen",
      "Lat" : 50.8090987,
      "Long" : 4.9340909
    },
    {
      "Stad/gemeente" : "Tienen",
      "Programma" : "Urbain full ",
      "Handelszaak" : "Box & Drops",
      "Straat + huisnummer" : "Hennemarkt 3",
      "postcode" : 3300,
      "stad" : "Tienen",
      "type" : "",
      "Address" : "Hennemarkt 3, 3300 Tienen",
      "Lat" : 50.8065078,
      "Long" : 4.939955299999999
    },
    {
      "Stad/gemeente" : "Tienen",
      "Programma" : "Urbain full ",
      "Handelszaak" : "Carrefour Express Tienen",
      "Straat + huisnummer" : "Nieuwstraat 29-31",
      "postcode" : 3300,
      "stad" : "Tienen",
      "type" : "",
      "Address" : "Nieuwstraat 29-31, 3300 Tienen",
      "Lat" : 50.8067696,
      "Long" : 4.9392309
    },
    {
      "Stad/gemeente" : "Tienen",
      "Programma" : "Urbain full ",
      "Handelszaak" : "Casella",
      "Straat + huisnummer" : "Leuvensestraat 50",
      "postcode" : 3300,
      "stad" : "Tienen",
      "type" : "",
      "Address" : "Leuvensestraat 50, 3300 Tienen",
      "Lat" : 50.8090836,
      "Long" : 4.9341478
    },
    {
      "Stad/gemeente" : "Tienen",
      "Programma" : "Urbain full ",
      "Handelszaak" : "Cheveux Chique",
      "Straat + huisnummer" : "Veemarkt 33",
      "postcode" : 3300,
      "stad" : "Tienen",
      "type" : "",
      "Address" : "Veemarkt 33, 3300 Tienen",
      "Lat" : 50.8055501,
      "Long" : 4.9395658
    },
    {
      "Stad/gemeente" : "Tienen",
      "Programma" : "Urbain full ",
      "Handelszaak" : "Comptoir d'enfants",
      "Straat + huisnummer" : "Leuvensestraat 48",
      "postcode" : 3300,
      "stad" : "Tienen",
      "type" : "",
      "Address" : "Leuvensestraat 48, 3300 Tienen",
      "Lat" : 50.8090007,
      "Long" : 4.9342411
    },
    {
      "Stad/gemeente" : "Tienen",
      "Programma" : "Urbain full ",
      "Handelszaak" : "Couture Marie",
      "Straat + huisnummer" : "Leuvensestraat 67",
      "postcode" : 3300,
      "stad" : "Tienen",
      "type" : "",
      "Address" : "Leuvensestraat 67, 3300 Tienen",
      "Lat" : 50.8093193,
      "Long" : 4.9333541
    },
    {
      "Stad/gemeente" : "Tienen",
      "Programma" : "Urbain full ",
      "Handelszaak" : "De Gouden Schaar",
      "Straat + huisnummer" : "Veemarkt 6",
      "postcode" : 3300,
      "stad" : "Tienen",
      "type" : "",
      "Address" : "Veemarkt 6, 3300 Tienen",
      "Lat" : 50.80554660000001,
      "Long" : 4.9402857
    },
    {
      "Stad/gemeente" : "Tienen",
      "Programma" : "Urbain full ",
      "Handelszaak" : "Declercq Juwelen",
      "Straat + huisnummer" : "Nieuwstraat 4",
      "postcode" : 3300,
      "stad" : "Tienen",
      "type" : "",
      "Address" : "Nieuwstraat 4, 3300 Tienen",
      "Lat" : 50.80730399999999,
      "Long" : 4.938393
    },
    {
      "Stad/gemeente" : "Tienen",
      "Programma" : "Urbain full ",
      "Handelszaak" : "Drogisterij Niclaes",
      "Straat + huisnummer" : "Leuvensestraat 75",
      "postcode" : 3300,
      "stad" : "Tienen",
      "type" : "",
      "Address" : "Leuvensestraat 75, 3300 Tienen",
      "Lat" : 50.8094323,
      "Long" : 4.932926999999999
    },
    {
      "Stad/gemeente" : "Tienen",
      "Programma" : "Urbain full ",
      "Handelszaak" : "Electro Vandeput",
      "Straat + huisnummer" : "Leuvensestraat 16-18",
      "postcode" : 3300,
      "stad" : "Tienen",
      "type" : "",
      "Address" : "Leuvensestraat 16-18, 3300 Tienen",
      "Lat" : 50.80785669999999,
      "Long" : 4.936025
    },
    {
      "Stad/gemeente" : "Tienen",
      "Programma" : "Urbain full ",
      "Handelszaak" : "Elektron",
      "Straat + huisnummer" : "Leuvenselaan 486A",
      "postcode" : 3300,
      "stad" : "Tienen",
      "type" : "",
      "Address" : "Leuvenselaan 486A, 3300 Tienen",
      "Lat" : 50.81789269999999,
      "Long" : 4.9044517
    },
    {
      "Stad/gemeente" : "Tienen",
      "Programma" : "Urbain full ",
      "Handelszaak" : "Esprit Tienen",
      "Straat + huisnummer" : "Hennemarkt 9",
      "postcode" : 3300,
      "stad" : "Tienen",
      "type" : "",
      "Address" : "Hennemarkt 9, 3300 Tienen",
      "Lat" : 50.8062954,
      "Long" : 4.9402005
    },
    {
      "Stad/gemeente" : "Tienen",
      "Programma" : "Urbain full ",
      "Handelszaak" : "Esthetiek Sofie",
      "Straat + huisnummer" : "Hennemarkt 23",
      "postcode" : 3300,
      "stad" : "Tienen",
      "type" : "",
      "Address" : "Hennemarkt 23, 3300 Tienen",
      "Lat" : 50.8059503,
      "Long" : 4.9405391
    },
    {
      "Stad/gemeente" : "Tienen",
      "Programma" : "Urbain full ",
      "Handelszaak" : "Frituur Saint-Germain",
      "Straat + huisnummer" : "Minderbroedersstraat 7/1",
      "postcode" : 3300,
      "stad" : "Tienen",
      "type" : "",
      "Address" : "Minderbroedersstraat 7/1, 3300 Tienen",
      "Lat" : 50.80571519999999,
      "Long" : 4.9380198
    },
    {
      "Stad/gemeente" : "Tienen",
      "Programma" : "Urbain full ",
      "Handelszaak" : "Graaf Streetwear",
      "Straat + huisnummer" : "Leuvensestraat 55",
      "postcode" : 3300,
      "stad" : "Tienen",
      "type" : "",
      "Address" : "Leuvensestraat 55, 3300 Tienen",
      "Lat" : 50.8091711,
      "Long" : 4.9339144
    },
    {
      "Stad/gemeente" : "Tienen",
      "Programma" : "Urbain full ",
      "Handelszaak" : "HERO outdoor",
      "Straat + huisnummer" : "Leuvensestraat 134",
      "postcode" : 3300,
      "stad" : "Tienen",
      "type" : "",
      "Address" : "Leuvensestraat 134, 3300 Tienen",
      "Lat" : 50.8096134,
      "Long" : 4.9302598
    },
    {
      "Stad/gemeente" : "Tienen",
      "Programma" : "Urbain full ",
      "Handelszaak" : "Hypotheekwinkel Tienen",
      "Straat + huisnummer" : "Beauduinstraat 19",
      "postcode" : 3300,
      "stad" : "Tienen",
      "type" : "",
      "Address" : "Beauduinstraat 19, 3300 Tienen",
      "Lat" : 50.8053,
      "Long" : 4.9414181
    },
    {
      "Stad/gemeente" : "Tienen",
      "Programma" : "Urbain full ",
      "Handelszaak" : "Isabo by Doris",
      "Straat + huisnummer" : "Leuvensestraat 41",
      "postcode" : 3300,
      "stad" : "Tienen",
      "type" : "",
      "Address" : "Leuvensestraat 41, 3300 Tienen",
      "Lat" : 50.809014,
      "Long" : 4.9344332
    },
    {
      "Stad/gemeente" : "Tienen",
      "Programma" : "Urbain full ",
      "Handelszaak" : "Jeans Station Tienen",
      "Straat + huisnummer" : "Nieuwstraat 11-13",
      "postcode" : 3300,
      "stad" : "Tienen",
      "type" : "",
      "Address" : "Nieuwstraat 11-13, 3300 Tienen",
      "Lat" : 50.8070917,
      "Long" : 4.938502
    },
    {
      "Stad/gemeente" : "Tienen",
      "Programma" : "Urbain full ",
      "Handelszaak" : "Jupotours",
      "Straat + huisnummer" : "Nieuwstraat 15",
      "postcode" : 3300,
      "stad" : "Tienen",
      "type" : "",
      "Address" : "Nieuwstraat 15, 3300 Tienen",
      "Lat" : 50.8069956,
      "Long" : 4.9386325
    },
    {
      "Stad/gemeente" : "Tienen",
      "Programma" : "Urbain full ",
      "Handelszaak" : "Lingerie Catty",
      "Straat + huisnummer" : "Leuvensestraat 51",
      "postcode" : 3300,
      "stad" : "Tienen",
      "type" : "",
      "Address" : "Leuvensestraat 51, 3300 Tienen",
      "Lat" : 50.80916269999999,
      "Long" : 4.934118
    },
    {
      "Stad/gemeente" : "Tienen",
      "Programma" : "Urbain full ",
      "Handelszaak" : "Ma Façon",
      "Straat + huisnummer" : "Nieuwstraat 2",
      "postcode" : 3300,
      "stad" : "Tienen",
      "type" : "",
      "Address" : "Nieuwstraat 2, 3300 Tienen",
      "Lat" : 50.8072321,
      "Long" : 4.938508100000001
    },
    {
      "Stad/gemeente" : "Tienen",
      "Programma" : "Urbain full ",
      "Handelszaak" : "Mangerie 't Loft",
      "Straat + huisnummer" : "Spiegelstraat 11",
      "postcode" : 3300,
      "stad" : "Tienen",
      "type" : "",
      "Address" : "Spiegelstraat 11, 3300 Tienen",
      "Lat" : 50.8065073,
      "Long" : 4.938153799999999
    },
    {
      "Stad/gemeente" : "Tienen",
      "Programma" : "Urbain full ",
      "Handelszaak" : "Mia Style",
      "Straat + huisnummer" : "Nieuwstraat 41-43",
      "postcode" : 3300,
      "stad" : "Tienen",
      "type" : "",
      "Address" : "Nieuwstraat 41-43, 3300 Tienen",
      "Lat" : 50.8067193,
      "Long" : 4.939700999999999
    },
    {
      "Stad/gemeente" : "Tienen",
      "Programma" : "Urbain full ",
      "Handelszaak" : "MiaRevo",
      "Straat + huisnummer" : "Leuvensestraat 26",
      "postcode" : 3300,
      "stad" : "Tienen",
      "type" : "",
      "Address" : "Leuvensestraat 26, 3300 Tienen",
      "Lat" : 50.80852549999999,
      "Long" : 4.935099699999999
    },
    {
      "Stad/gemeente" : "Tienen",
      "Programma" : "Urbain full ",
      "Handelszaak" : "Nail & Body Fashion",
      "Straat + huisnummer" : "Nieuwstraat 37",
      "postcode" : 3300,
      "stad" : "Tienen",
      "type" : "",
      "Address" : "Nieuwstraat 37, 3300 Tienen",
      "Lat" : 50.80673609999999,
      "Long" : 4.9395443
    },
    {
      "Stad/gemeente" : "Tienen",
      "Programma" : "Urbain full ",
      "Handelszaak" : "Pearle Opticien Tienen",
      "Straat + huisnummer" : "Leuvensestraat 21",
      "postcode" : 3300,
      "stad" : "Tienen",
      "type" : "",
      "Address" : "Leuvensestraat 21, 3300 Tienen",
      "Lat" : 50.8086397,
      "Long" : 4.9351319
    },
    {
      "Stad/gemeente" : "Tienen",
      "Programma" : "Urbain full ",
      "Handelszaak" : "Proximus Tienen",
      "Straat + huisnummer" : "Leuvensestraat 34",
      "postcode" : 3300,
      "stad" : "Tienen",
      "type" : "",
      "Address" : "Leuvensestraat 34, 3300 Tienen",
      "Lat" : 50.8087822,
      "Long" : 4.934791
    },
    {
      "Stad/gemeente" : "Tienen",
      "Programma" : "Urbain full ",
      "Handelszaak" : "Schoonheidssalon Melissa",
      "Straat + huisnummer" : "Minderbroedersstraat 24",
      "postcode" : 3300,
      "stad" : "Tienen",
      "type" : "",
      "Address" : "Minderbroedersstraat 24, 3300 Tienen",
      "Lat" : 50.8052415,
      "Long" : 4.9381079
    },
    {
      "Stad/gemeente" : "Tienen",
      "Programma" : "Urbain full ",
      "Handelszaak" : "Si Belle - Si Beau",
      "Straat + huisnummer" : "Spiegelstraat 12-14",
      "postcode" : 3300,
      "stad" : "Tienen",
      "type" : "",
      "Address" : "Spiegelstraat 12-14, 3300 Tienen",
      "Lat" : 50.8065359,
      "Long" : 4.938267199999999
    },